{"objectIdFieldName":"OBJECTID","uniqueIdField":{"name":"OBJECTID","isSystemMaintained":true},"globalIdFieldName":"","geometryType":"esriGeometryPoint","spatialReference":{"wkid":102100,"latestWkid":3857},"transform":{"originPosition":"upperLeft","scale":[1.0583354500042341,1.0583354500042341],"translate":[-10449872.295338809,3601728.2004689993]},"fields":[{"name":"OBJECTID","type":"esriFieldTypeOID","alias":"OBJECTID","sqlType":"sqlTypeOther","domain":null,"defaultValue":null},{"name":"Date","type":"esriFieldTypeDate","alias":"Date","sqlType":"sqlTypeOther","length":8,"domain":null,"defaultValue":null},{"name":"Lat","type":"esriFieldTypeDouble","alias":"Lat","sqlType":"sqlTypeOther","domain":null,"defaultValue":null},{"name":"Lon","type":"esriFieldTypeDouble","alias":"Lon","sqlType":"sqlTypeOther","domain":null,"defaultValue":null},{"name":"Genus","type":"esriFieldTypeString","alias":"Genus","sqlType":"sqlTypeOther","length":2147483647,"domain":null,"defaultValue":null},{"name":"Species","type":"esriFieldTypeString","alias":"Species","sqlType":"sqlTypeOther","length":2147483647,"domain":null,"defaultValue":null},{"name":"Sex","type":"esriFieldTypeString","alias":"Sex","sqlType":"sqlTypeOther","length":2147483647,"domain":null,"defaultValue":null},{"name":"Status","type":"esriFieldTypeString","alias":"Status","sqlType":"sqlTypeOther","length":2147483647,"domain":null,"defaultValue":null},{"name":"County","type":"esriFieldTypeString","alias":"County","sqlType":"sqlTypeOther","length":2147483647,"domain":null,"defaultValue":null},{"name":"State","type":"esriFieldTypeString","alias":"State","sqlType":"sqlTypeOther","length":2147483647,"domain":null,"defaultValue":null},{"name":"F_updated","type":"esriFieldTypeDate","alias":"_updated","sqlType":"sqlTypeOther","length":8,"domain":null,"defaultValue":null}],"features":[{"attributes":{"OBJECTID":1,"Date":1554076800000,"Lat":30.393106,"Lon":-86.5284893,"Genus":"Tursiops","Species":"truncatus","Sex":"Male","Status":"Fresh Dead","County":"Okaloosa","State":"FL","F_updated":1588749604701},"geometry":{"x":772501,"y":44927}},{"attributes":{"OBJECTID":2,"Date":1554076800000,"Lat":30.130453,"Lon":-85.727183,"Genus":"Tursiops","Species":"truncatus","Sex":"Female","Status":"Advanced Decomposition","County":"Bay","State":"FL","F_updated":1588749604701},"geometry":{"x":856785,"y":76912}},{"attributes":{"OBJECTID":3,"Date":1554076800000,"Lat":30.358762,"Lon":-89.098893,"Genus":"Tursiops","Species":"truncatus","Sex":"Unknown","Status":"Moderate Decomposition","County":"Harrison","State":"MS","F_updated":1588749604701},"geometry":{"x":502137,"y":49114}},{"attributes":{"OBJECTID":4,"Date":1554163200000,"Lat":30.436389,"Lon":-88.105833,"Genus":"Tursiops","Species":"truncatus","Sex":"Male","Status":"Moderate Decomposition","County":"Mobile","State":"AL","F_updated":1588749604701},"geometry":{"x":606590,"y":39648}},{"attributes":{"OBJECTID":5,"Date":1554163200000,"Lat":29.19561,"Lon":-90.04981,"Genus":"Tursiops","Species":"truncatus","Sex":"Male","Status":"Advanced Decomposition","County":"Jefferson","State":"LA","F_updated":1588749604701},"geometry":{"x":402116,"y":190074}},{"attributes":{"OBJECTID":6,"Date":1554249600000,"Lat":30.228456,"Lon":-87.983344,"Genus":"Tursiops","Species":"truncatus","Sex":"Male","Status":"Fresh Dead","County":"Baldwin","State":"AL","F_updated":1588749604701},"geometry":{"x":619474,"y":64987}},{"attributes":{"OBJECTID":7,"Date":1554249600000,"Lat":30.35408,"Lon":-89.09911,"Genus":"Tursiops","Species":"truncatus","Sex":"Male","Status":"Moderate Decomposition","County":"Harrison","State":"MS","F_updated":1588749604701},"geometry":{"x":502114,"y":49685}},{"attributes":{"OBJECTID":8,"Date":1554336000000,"Lat":30.3949872,"Lon":-86.5649288,"Genus":"Tursiops","Species":"truncatus","Sex":"Female","Status":"Moderate Decomposition","County":"Okaloosa","State":"FL","F_updated":1588749604701},"geometry":{"x":768668,"y":44697}},{"attributes":{"OBJECTID":9,"Date":1554422400000,"Lat":30.245284,"Lon":-88.127261,"Genus":"Tursiops","Species":"truncatus","Sex":"Male","Status":"Fresh Dead","County":"Mobile","State":"AL","F_updated":1588749604701},"geometry":{"x":604336,"y":62939}},{"attributes":{"OBJECTID":10,"Date":1554422400000,"Lat":29.673449,"Lon":-84.869743,"Genus":"Tursiops","Species":"truncatus","Sex":"Female","Status":"Moderate Decomposition","County":"Franklin","State":"FL","F_updated":1588749604701},"geometry":{"x":946974,"y":132363}},{"attributes":{"OBJECTID":11,"Date":1554422400000,"Lat":30.302744,"Lon":-89.329601,"Genus":"Tursiops","Species":"truncatus","Sex":"Male","Status":"Moderate Decomposition","County":"Hancock","State":"MS","F_updated":1588749604701},"geometry":{"x":477870,"y":55940}},{"attributes":{"OBJECTID":12,"Date":1554422400000,"Lat":30.318083,"Lon":-89.319077,"Genus":"Tursiops","Species":"truncatus","Sex":"Male","Status":"Fresh Dead","County":"Hancock","State":"MS","F_updated":1588749604701},"geometry":{"x":478977,"y":54072}},{"attributes":{"OBJECTID":13,"Date":1554508800000,"Lat":30.22895,"Lon":-88.299565,"Genus":"Tursiops","Species":"truncatus","Sex":"Female","Status":"Moderate Decomposition","County":"Mobile","State":"AL","F_updated":1588749604701},"geometry":{"x":586213,"y":64927}},{"attributes":{"OBJECTID":14,"Date":1554508800000,"Lat":30.32087,"Lon":-87.25886,"Genus":"Tursiops","Species":"truncatus","Sex":"Male","Status":"Moderate Decomposition","County":"Escambia","State":"FL","F_updated":1588749604701},"geometry":{"x":695678,"y":53732}},{"attributes":{"OBJECTID":15,"Date":1554508800000,"Lat":30.276281,"Lon":-89.373602,"Genus":"Tursiops","Species":"truncatus","Sex":"Female","Status":"Moderate Decomposition","County":"Hancock","State":"MS","F_updated":1588749604701},"geometry":{"x":473242,"y":59164}},{"attributes":{"OBJECTID":16,"Date":1554595200000,"Lat":29.712542,"Lon":-89.648589,"Genus":"Tursiops","Species":"truncatus","Sex":"Unknown","Status":"Condition Unknown","County":"St Bernard","State":"LA","F_updated":1588749604701},"geometry":{"x":444318,"y":127630}},{"attributes":{"OBJECTID":17,"Date":1554595200000,"Lat":29.712542,"Lon":-89.648589,"Genus":"Tursiops","Species":"truncatus","Sex":"Unknown","Status":"Condition Unknown","County":"St. Bernard","State":"LA","F_updated":1588749604701},"geometry":{"x":444318,"y":127630}},{"attributes":{"OBJECTID":18,"Date":1554595200000,"Lat":29.712542,"Lon":-89.648589,"Genus":"Tursiops","Species":"truncatus","Sex":"Unknown","Status":"Condition Unknown","County":"St. Bernard","State":"LA","F_updated":1588749604701},"geometry":{"x":444318,"y":127630}},{"attributes":{"OBJECTID":19,"Date":1554681600000,"Lat":30.215097,"Lon":-85.697742,"Genus":"Tursiops","Species":"truncatus","Sex":"Female","Status":"Moderate Decomposition","County":"Bay","State":"FL","F_updated":1588749604701},"geometry":{"x":859882,"y":66614}},{"attributes":{"OBJECTID":20,"Date":1554681600000,"Lat":29.431938,"Lon":-89.54588,"Genus":"Tursiops","Species":"truncatus","Sex":"Unknown","Status":"Condition Unknown","County":"Plaquemines","State":"LA","F_updated":1588749604701},"geometry":{"x":455121,"y":161565}},{"attributes":{"OBJECTID":21,"Date":1554768000000,"Lat":29.75154,"Lon":-93.64563,"Genus":"Tursiops","Species":"truncatus","Sex":"Male","Status":"Advanced Decomposition","County":"Cameron","State":"LA","F_updated":1588749604701},"geometry":{"x":23895,"y":122906}},{"attributes":{"OBJECTID":22,"Date":1554768000000,"Lat":30.3449,"Lon":-88.5736,"Genus":"Tursiops","Species":"truncatus","Sex":"Unknown","Status":"Moderate Decomposition","County":"Jackson","State":"MS","F_updated":1588749604701},"geometry":{"x":557389,"y":50804}},{"attributes":{"OBJECTID":23,"Date":1554854400000,"Lat":30.5036236,"Lon":-86.4550574,"Genus":"Tursiops","Species":"truncatus","Sex":"Male","Status":"Moderate Decomposition","County":"Okaloosa","State":"FL","F_updated":1588749604701},"geometry":{"x":780225,"y":31442}},{"attributes":{"OBJECTID":24,"Date":1554854400000,"Lat":29.76045,"Lon":-93.13283,"Genus":"Tursiops","Species":"truncatus","Sex":"Female","Status":"Fresh Dead","County":"Cameron","State":"LA","F_updated":1588749604701},"geometry":{"x":77833,"y":121826}},{"attributes":{"OBJECTID":25,"Date":1554854400000,"Lat":29.7145,"Lon":-89.4637166,"Genus":"Tursiops","Species":"truncatus","Sex":"Male","Status":"Advanced Decomposition","County":"St. Bernard","State":"LA","F_updated":1588749604701},"geometry":{"x":463763,"y":127393}},{"attributes":{"OBJECTID":26,"Date":1554854400000,"Lat":29.737533,"Lon":-89.51745,"Genus":"Tursiops","Species":"truncatus","Sex":"Male","Status":"Advanced Decomposition","County":"St. Bernard","State":"LA","F_updated":1588749604701},"geometry":{"x":458111,"y":124603}},{"attributes":{"OBJECTID":27,"Date":1554854400000,"Lat":30.22612,"Lon":-88.58923,"Genus":"Tursiops","Species":"truncatus","Sex":"Male","Status":"Fresh Dead","County":"Jackson","State":"MS","F_updated":1588749604701},"geometry":{"x":555745,"y":65272}},{"attributes":{"OBJECTID":28,"Date":1554940800000,"Lat":30.301667,"Lon":-87.605267,"Genus":"Tursiops","Species":"truncatus","Sex":"Unknown","Status":"Fresh Dead","County":"Baldwin","State":"AL","F_updated":1588749604701},"geometry":{"x":659241,"y":56072}},{"attributes":{"OBJECTID":29,"Date":1554940800000,"Lat":30.4361,"Lon":-86.5978,"Genus":"Tursiops","Species":"truncatus","Sex":"Male","Status":"Moderate Decomposition","County":"Okaloosa","State":"FL","F_updated":1588749604701},"geometry":{"x":765210,"y":39683}},{"attributes":{"OBJECTID":30,"Date":1554940800000,"Lat":30.30342,"Lon":-89.2896,"Genus":"Tursiops","Species":"truncatus","Sex":"Male","Status":"Fresh Dead","County":"Harrison","State":"MS","F_updated":1588749604701},"geometry":{"x":482077,"y":55858}},{"attributes":{"OBJECTID":31,"Date":1554940800000,"Lat":30.21999,"Lon":-88.92065,"Genus":"Tursiops","Species":"truncatus","Sex":"Unknown","Status":"Advanced Decomposition","County":"Harrison","State":"MS","F_updated":1588749604701},"geometry":{"x":520885,"y":66018}},{"attributes":{"OBJECTID":32,"Date":1554940800000,"Lat":30.2253,"Lon":-88.90714,"Genus":"Tursiops","Species":"truncatus","Sex":"Female","Status":"Advanced Decomposition","County":"Harrison","State":"MS","F_updated":1588749604701},"geometry":{"x":522306,"y":65372}},{"attributes":{"OBJECTID":33,"Date":1555027200000,"Lat":30.349377,"Lon":-88.393576,"Genus":"Tursiops","Species":"truncatus","Sex":"Unknown","Status":"Fresh Dead","County":"Mobile","State":"AL","F_updated":1588749604701},"geometry":{"x":576324,"y":50258}},{"attributes":{"OBJECTID":34,"Date":1555027200000,"Lat":30.272626,"Lon":-87.55192,"Genus":"Tursiops","Species":"truncatus","Sex":"Female","Status":"Fresh Dead","County":"Baldwin","State":"AL","F_updated":1588749604701},"geometry":{"x":664853,"y":59609}},{"attributes":{"OBJECTID":35,"Date":1555027200000,"Lat":30.38751,"Lon":-88.99926,"Genus":"Tursiops","Species":"truncatus","Sex":"Female","Status":"Moderate Decomposition","County":"Harrison","State":"MS","F_updated":1588749604701},"geometry":{"x":512616,"y":45609}},{"attributes":{"OBJECTID":36,"Date":1555027200000,"Lat":30.37413,"Lon":-89.06107,"Genus":"Tursiops","Species":"truncatus","Sex":"Male","Status":"Moderate Decomposition","County":"Harrison","State":"MS","F_updated":1588749604701},"geometry":{"x":506115,"y":47240}},{"attributes":{"OBJECTID":37,"Date":1555113600000,"Lat":30.3217,"Lon":-87.5257,"Genus":"Tursiops","Species":"truncatus","Sex":"Male","Status":"Moderate Decomposition","County":"Baldwin","State":"AL","F_updated":1588749604701},"geometry":{"x":667611,"y":53631}},{"attributes":{"OBJECTID":38,"Date":1555113600000,"Lat":30.294787,"Lon":-87.473695,"Genus":"Tursiops","Species":"truncatus","Sex":"Unknown","Status":"Condition Unknown","County":"Escambia","State":"FL","F_updated":1588749604701},"geometry":{"x":673081,"y":56910}},{"attributes":{"OBJECTID":39,"Date":1555113600000,"Lat":29.26254,"Lon":-89.948992,"Genus":"Tursiops","Species":"truncatus","Sex":"Female","Status":"Condition Unknown","County":"Jefferson","State":"LA","F_updated":1588749604701},"geometry":{"x":412720,"y":182007}},{"attributes":{"OBJECTID":40,"Date":1555200000000,"Lat":30.346453,"Lon":-88.695117,"Genus":"Tursiops","Species":"truncatus","Sex":"Unknown","Status":"Moderate Decomposition","County":"Jackson","State":"MS","F_updated":1588749604701},"geometry":{"x":544607,"y":50614}},{"attributes":{"OBJECTID":41,"Date":1555372800000,"Lat":29.10549,"Lon":-90.18387,"Genus":"Tursiops","Species":"truncatus","Sex":"Unknown","Status":"Advanced Decomposition","County":"La Fourche","State":"LA","F_updated":1588749604701},"geometry":{"x":388015,"y":200928}},{"attributes":{"OBJECTID":42,"Date":1555372800000,"Lat":29.10699,"Lon":-90.18175,"Genus":"Tursiops","Species":"truncatus","Sex":"Unknown","Status":"Mummified/Skeletal","County":"Lafourche","State":"LA","F_updated":1588749604701},"geometry":{"x":388238,"y":200747}},{"attributes":{"OBJECTID":43,"Date":1555372800000,"Lat":29.12697,"Lon":-90.15136,"Genus":"Tursiops","Species":"truncatus","Sex":"Unknown","Status":"Mummified/Skeletal","County":"Lafourche","State":"LA","F_updated":1588749604701},"geometry":{"x":391434,"y":198341}},{"attributes":{"OBJECTID":44,"Date":1555459200000,"Lat":29.691066,"Lon":-89.7430166,"Genus":"Tursiops","Species":"truncatus","Sex":"Unknown","Status":"Advanced Decomposition","County":"Plaquemines","State":"LA","F_updated":1588749604701},"geometry":{"x":434385,"y":130230}},{"attributes":{"OBJECTID":45,"Date":1555459200000,"Lat":29.70280277,"Lon":-89.7078277,"Genus":"Tursiops","Species":"truncatus","Sex":"Unknown","Status":"Condition Unknown","County":"Plaquemines","State":"LA","F_updated":1588749604701},"geometry":{"x":438087,"y":128809}},{"attributes":{"OBJECTID":46,"Date":1555545600000,"Lat":30.306475,"Lon":-87.472455,"Genus":"Tursiops","Species":"truncatus","Sex":"Unknown","Status":"Fresh Dead","County":"Baldwin","State":"AL","F_updated":1588749604701},"geometry":{"x":673211,"y":55486}},{"attributes":{"OBJECTID":47,"Date":1555545600000,"Lat":30.35932,"Lon":-89.10814,"Genus":"Tursiops","Species":"truncatus","Sex":"Male","Status":"Moderate Decomposition","County":"Harrison","State":"MS","F_updated":1588749604701},"geometry":{"x":501164,"y":49046}},{"attributes":{"OBJECTID":48,"Date":1555632000000,"Lat":30.37412,"Lon":-89.06141,"Genus":"Tursiops","Species":"truncatus","Sex":"Male","Status":"Moderate Decomposition","County":"Harrison","State":"MS","F_updated":1588749604701},"geometry":{"x":506079,"y":47242}},{"attributes":{"OBJECTID":49,"Date":1555718400000,"Lat":29.198027,"Lon":-90.05994,"Genus":"Tursiops","Species":"truncatus","Sex":"Male","Status":"Advanced Decomposition","County":"Jefferson","State":"LA","F_updated":1588749604701},"geometry":{"x":401050,"y":189782}},{"attributes":{"OBJECTID":50,"Date":1555718400000,"Lat":30.3113025,"Lon":-87.4768872,"Genus":"Tursiops","Species":"truncatus","Sex":"Male","Status":"Moderate Decomposition","County":"Escambia","State":"FL","F_updated":1588749604701},"geometry":{"x":672745,"y":54898}},{"attributes":{"OBJECTID":51,"Date":1555718400000,"Lat":30.23717,"Lon":-89.06691,"Genus":"Tursiops","Species":"truncatus","Sex":"Male","Status":"Moderate Decomposition","County":"Harrison","State":"MS","F_updated":1588749604701},"geometry":{"x":505501,"y":63927}},{"attributes":{"OBJECTID":52,"Date":1555718400000,"Lat":30.215564,"Lon":-88.939603,"Genus":"Tursiops","Species":"truncatus","Sex":"Unknown","Status":"Moderate Decomposition","County":"Harrison","State":"MS","F_updated":1588749604701},"geometry":{"x":518891,"y":66557}},{"attributes":{"OBJECTID":53,"Date":1555891200000,"Lat":30.2284,"Lon":-88.9196,"Genus":"Tursiops","Species":"truncatus","Sex":"Female","Status":"Moderate Decomposition","County":"Harrison","State":"MS","F_updated":1588749604701},"geometry":{"x":520995,"y":64994}},{"attributes":{"OBJECTID":54,"Date":1555891200000,"Lat":30.366243,"Lon":-88.397404,"Genus":"Tursiops","Species":"truncatus","Sex":"Male","Status":"Moderate Decomposition","County":"Jackson","State":"MS","F_updated":1588749604701},"geometry":{"x":575922,"y":48202}},{"attributes":{"OBJECTID":55,"Date":1556064000000,"Lat":30.3172667,"Lon":-87.8706333,"Genus":"Tursiops","Species":"truncatus","Sex":"Female","Status":"Moderate Decomposition","County":"Baldwin","State":"AL","F_updated":1588749604701},"geometry":{"x":631329,"y":54171}},{"attributes":{"OBJECTID":56,"Date":1556064000000,"Lat":29.96324,"Lon":-89.37921,"Genus":"Tursiops","Species":"truncatus","Sex":"Unknown","Status":"Moderate Decomposition","County":"Saint Bernard","State":"LA","F_updated":1588749604701},"geometry":{"x":472652,"y":97231}},{"attributes":{"OBJECTID":57,"Date":1556064000000,"Lat":29.725277,"Lon":-89.675,"Genus":"Tursiops","Species":"truncatus","Sex":"Unknown","Status":"Moderate Decomposition","County":"Saint Bernard","State":"LA","F_updated":1588749604701},"geometry":{"x":441540,"y":126087}},{"attributes":{"OBJECTID":58,"Date":1556236800000,"Lat":30.337835,"Lon":-88.129563,"Genus":"Tursiops","Species":"truncatus","Sex":"Female","Status":"Moderate Decomposition","County":"Mobile","State":"AL","F_updated":1588749604701},"geometry":{"x":604094,"y":51665}},{"attributes":{"OBJECTID":59,"Date":1556236800000,"Lat":29.876166,"Lon":-89.222766,"Genus":"Tursiops","Species":"truncatus","Sex":"Female","Status":"Moderate Decomposition","County":"St. Bernard","State":"LA","F_updated":1588749604701},"geometry":{"x":489107,"y":107798}},{"attributes":{"OBJECTID":60,"Date":1556236800000,"Lat":29.728266,"Lon":-89.6832166,"Genus":"Tursiops","Species":"truncatus","Sex":"Unknown","Status":"Advanced Decomposition","County":"Saint Bernard","State":"LA","F_updated":1588749604701},"geometry":{"x":440675,"y":125725}},{"attributes":{"OBJECTID":61,"Date":1556236800000,"Lat":29.93134167,"Lon":-89.24205,"Genus":"Tursiops","Species":"truncatus","Sex":"Unknown","Status":"Condition Unknown","County":"St. Bernard","State":"LA","F_updated":1588749604701},"geometry":{"x":487079,"y":101103}},{"attributes":{"OBJECTID":62,"Date":1556323200000,"Lat":29.70733,"Lon":-89.55238,"Genus":"Tursiops","Species":"truncatus","Sex":"Unknown","Status":"Moderate Decomposition","County":"Saint Bernard","State":"LA","F_updated":1588749604701},"geometry":{"x":454437,"y":128261}},{"attributes":{"OBJECTID":63,"Date":1556323200000,"Lat":29.89659,"Lon":-89.73006,"Genus":"Tursiops","Species":"truncatus","Sex":"Male","Status":"Advanced Decomposition","County":"Saint Bernard","State":"LA","F_updated":1588749604701},"geometry":{"x":435748,"y":105320}},{"attributes":{"OBJECTID":64,"Date":1556323200000,"Lat":29.995,"Lon":-89.86222,"Genus":"Tursiops","Species":"truncatus","Sex":"Unknown","Status":"Advanced Decomposition","County":"Saint Bernard","State":"LA","F_updated":1588749604701},"geometry":{"x":421847,"y":93374}},{"attributes":{"OBJECTID":65,"Date":1556323200000,"Lat":29.7413388,"Lon":-89.6891722,"Genus":"Tursiops","Species":"truncatus","Sex":"Unknown","Status":"Advanced Decomposition","County":"St. Bernard","State":"LA","F_updated":1588749604701},"geometry":{"x":440049,"y":124142}},{"attributes":{"OBJECTID":66,"Date":1556409600000,"Lat":29.759654,"Lon":-89.674716,"Genus":"Tursiops","Species":"truncatus","Sex":"Unknown","Status":"Advanced Decomposition","County":"Saint Bernard","State":"LA","F_updated":1588749604701},"geometry":{"x":441569,"y":121923}},{"attributes":{"OBJECTID":67,"Date":1556409600000,"Lat":29.9094833,"Lon":-89.5746,"Genus":"Tursiops","Species":"truncatus","Sex":"Unknown","Status":"Advanced Decomposition","County":"St Bernard","State":"LA","F_updated":1588749604701},"geometry":{"x":452100,"y":103756}},{"attributes":{"OBJECTID":68,"Date":1556409600000,"Lat":29.693366,"Lon":-89.341366,"Genus":"Tursiops","Species":"truncatus","Sex":"Unknown","Status":"Advanced Decomposition","County":"Saint Bernard","State":"LA","F_updated":1588749604701},"geometry":{"x":476632,"y":129952}},{"attributes":{"OBJECTID":69,"Date":1556409600000,"Lat":30.33481,"Lon":-89.4422,"Genus":"Tursiops","Species":"truncatus","Sex":"Male","Status":"Moderate Decomposition","County":"Hancock","State":"MS","F_updated":1588749604701},"geometry":{"x":466026,"y":52033}},{"attributes":{"OBJECTID":70,"Date":1556409600000,"Lat":30.241855,"Lon":-89.13802,"Genus":"Tursiops","Species":"truncatus","Sex":"Unknown","Status":"Moderate Decomposition","County":"Harrison","State":"MS","F_updated":1588749604701},"geometry":{"x":498021,"y":63356}},{"attributes":{"OBJECTID":71,"Date":1556409600000,"Lat":30.312056,"Lon":-89.250844,"Genus":"Tursiops","Species":"truncatus","Sex":"Male","Status":"Moderate Decomposition","County":"Harrison","State":"MS","F_updated":1588749604701},"geometry":{"x":486154,"y":54806}},{"attributes":{"OBJECTID":72,"Date":1556496000000,"Lat":29.235904,"Lon":-89.984406,"Genus":"Tursiops","Species":"truncatus","Sex":"Female","Status":"Moderate Decomposition","County":"Jefferson","State":"LA","F_updated":1588749604701},"geometry":{"x":408995,"y":185218}},{"attributes":{"OBJECTID":73,"Date":1556496000000,"Lat":29.71133,"Lon":-89.43244,"Genus":"Tursiops","Species":"truncatus","Sex":"Unknown","Status":"Advanced Decomposition","County":"St. Bernard","State":"LA","F_updated":1588749604701},"geometry":{"x":467053,"y":127777}},{"attributes":{"OBJECTID":74,"Date":1556496000000,"Lat":29.7191166,"Lon":-89.533233,"Genus":"Tursiops","Species":"truncatus","Sex":"Female","Status":"Advanced Decomposition","County":"Saint Bernard","State":"LA","F_updated":1588749604701},"geometry":{"x":456451,"y":126834}},{"attributes":{"OBJECTID":75,"Date":1556496000000,"Lat":29.652677,"Lon":-89.648277,"Genus":"Tursiops","Species":"truncatus","Sex":"Male","Status":"Advanced Decomposition","County":"Plaquemines","State":"LA","F_updated":1588749604701},"geometry":{"x":444350,"y":134878}},{"attributes":{"OBJECTID":76,"Date":1556496000000,"Lat":30.290486,"Lon":-89.352865,"Genus":"Tursiops","Species":"truncatus","Sex":"Male","Status":"Alive","County":"Hancock","State":"MS","F_updated":1588749604701},"geometry":{"x":475423,"y":57434}},{"attributes":{"OBJECTID":77,"Date":1556496000000,"Lat":30.303292,"Lon":-89.286706,"Genus":"Tursiops","Species":"truncatus","Sex":"Male","Status":"Moderate Decomposition","County":"Harrison","State":"MS","F_updated":1588749604701},"geometry":{"x":482382,"y":55874}},{"attributes":{"OBJECTID":78,"Date":1556582400000,"Lat":30.25825,"Lon":-85.6976,"Genus":"Tursiops","Species":"truncatus","Sex":"Unknown","Status":"Advanced Decomposition","County":"Bay","State":"FL","F_updated":1588749604701},"geometry":{"x":859897,"y":61360}},{"attributes":{"OBJECTID":79,"Date":1556582400000,"Lat":30.37944,"Lon":-89.03456,"Genus":"Tursiops","Species":"truncatus","Sex":"Male","Status":"Moderate Decomposition","County":"Harrison","State":"MS","F_updated":1588749604701},"geometry":{"x":508903,"y":46593}},{"attributes":{"OBJECTID":80,"Date":1556582400000,"Lat":30.36254,"Lon":-89.08477,"Genus":"Tursiops","Species":"truncatus","Sex":"Female","Status":"Moderate Decomposition","County":"Harrison","State":"MS","F_updated":1588749604701},"geometry":{"x":503622,"y":48653}},{"attributes":{"OBJECTID":81,"Date":1556582400000,"Lat":30.280033,"Lon":-89.370451,"Genus":"Tursiops","Species":"truncatus","Sex":"Female","Status":"Moderate Decomposition","County":"Hancock","State":"MS","F_updated":1588749604701},"geometry":{"x":473573,"y":58707}},{"attributes":{"OBJECTID":82,"Date":1564790400000,"Lat":30.41583,"Lon":-88.7936,"Genus":"Tursiops","Species":"truncatus","Sex":"Female","Status":"Fresh Dead","County":"Harrison","State":"MS","F_updated":1588749604701},"geometry":{"x":534248,"y":42155}},{"attributes":{"OBJECTID":83,"Date":1564963200000,"Lat":30.35369,"Lon":-89.12609,"Genus":"Tursiops","Species":"truncatus","Sex":"Female","Status":"Fresh Dead","County":"Harrison","State":"MS","F_updated":1588749604701},"geometry":{"x":499276,"y":49732}},{"attributes":{"OBJECTID":84,"Date":1565049600000,"Lat":29.46902,"Lon":-89.342,"Genus":"Tursiops","Species":"truncatus","Sex":"Unknown","Status":"Advanced Decomposition","County":"Plaquemines","State":"LA","F_updated":1588749604701},"geometry":{"x":476566,"y":157086}},{"attributes":{"OBJECTID":85,"Date":1565136000000,"Lat":30.22806,"Lon":-88.32533,"Genus":"Tursiops","Species":"truncatus","Sex":"Unknown","Status":"Moderate Decomposition","County":"Mobile","State":"AL","F_updated":1588749604701},"geometry":{"x":583503,"y":65036}},{"attributes":{"OBJECTID":86,"Date":1565136000000,"Lat":30.393335,"Lon":-88.894427,"Genus":"Tursiops","Species":"truncatus","Sex":"Male","Status":"Moderate Decomposition","County":"Harrison","State":"MS","F_updated":1588749604701},"geometry":{"x":523643,"y":44899}},{"attributes":{"OBJECTID":87,"Date":1565308800000,"Lat":30.315765,"Lon":-87.529321,"Genus":"Tursiops","Species":"truncatus","Sex":"Male","Status":"Moderate Decomposition","County":"Baldwin","State":"AL","F_updated":1588749604701},"geometry":{"x":667230,"y":54354}},{"attributes":{"OBJECTID":88,"Date":1565568000000,"Lat":29.74506,"Lon":-93.68958,"Genus":"Tursiops","Species":"truncatus","Sex":"Unknown","Status":"Mummified/Skeletal","County":"Cameron","State":"LA","F_updated":1588749604701},"geometry":{"x":19272,"y":123691}},{"attributes":{"OBJECTID":89,"Date":1565740800000,"Lat":29.7728,"Lon":-93.3552,"Genus":"Tursiops","Species":"truncatus","Sex":"Male","Status":"Alive","County":"Cameron","State":"LA","F_updated":1588749604701},"geometry":{"x":54443,"y":120330}},{"attributes":{"OBJECTID":90,"Date":1566345600000,"Lat":29.7427,"Lon":-93.8728,"Genus":"Tursiops","Species":"truncatus","Sex":"Unknown","Status":"Moderate Decomposition","County":"Cameron","State":"LA","F_updated":1588749604701},"geometry":{"x":0,"y":123977}},{"attributes":{"OBJECTID":91,"Date":1566518400000,"Lat":30.387983,"Lon":-88.991302,"Genus":"Tursiops","Species":"truncatus","Sex":"Male","Status":"Condition Unknown","County":"Harrison","State":"MS","F_updated":1588749604701},"geometry":{"x":513453,"y":45551}},{"attributes":{"OBJECTID":92,"Date":1567123200000,"Lat":30.288757,"Lon":-88.049014,"Genus":"Tursiops","Species":"truncatus","Sex":"Unknown","Status":"Fresh Dead","County":"Mobile","State":"AL","F_updated":1588749604701},"geometry":{"x":612567,"y":57644}},{"attributes":{"OBJECTID":93,"Date":1549065600000,"Lat":29.7692815,"Lon":-93.4383794,"Genus":"Tursiops","Species":"truncatus","Sex":"Female","Status":"Moderate Decomposition","County":"Cameron","State":"LA","F_updated":1588749604701},"geometry":{"x":45694,"y":120756}},{"attributes":{"OBJECTID":94,"Date":1549065600000,"Lat":30.37343,"Lon":-89.06442,"Genus":"Tursiops","Species":"truncatus","Sex":"Male","Status":"Fresh Dead","County":"Harrison","State":"MS","F_updated":1588749604701},"geometry":{"x":505763,"y":47326}},{"attributes":{"OBJECTID":95,"Date":1549152000000,"Lat":30.278505,"Lon":-87.712691,"Genus":"Tursiops","Species":"truncatus","Sex":"Female","Status":"Fresh Dead","County":"Baldwin","State":"AL","F_updated":1588749604701},"geometry":{"x":647942,"y":58893}},{"attributes":{"OBJECTID":96,"Date":1549324800000,"Lat":29.61804,"Lon":-85.08108,"Genus":"Tursiops","Species":"truncatus","Sex":"Male","Status":"Moderate Decomposition","County":"Franklin","State":"FL","F_updated":1588749604701},"geometry":{"x":924744,"y":139069}},{"attributes":{"OBJECTID":97,"Date":1549324800000,"Lat":29.26888,"Lon":-89.95293,"Genus":"Tursiops","Species":"truncatus","Sex":"Male","Status":"Fresh Dead","County":"Jefferson","State":"LA","F_updated":1588749604701},"geometry":{"x":412306,"y":181242}},{"attributes":{"OBJECTID":98,"Date":1549497600000,"Lat":29.81532,"Lon":-84.57361,"Genus":"Tursiops","Species":"truncatus","Sex":"Female","Status":"Moderate Decomposition","County":"Franklin","State":"FL","F_updated":1588749604701},"geometry":{"x":978122,"y":115176}},{"attributes":{"OBJECTID":99,"Date":1549497600000,"Lat":30.15584,"Lon":-93.56744,"Genus":"Tursiops","Species":"truncatus","Sex":"Female","Status":"Moderate Decomposition","County":"Calcasieu","State":"LA","F_updated":1588749604701},"geometry":{"x":32119,"y":73824}},{"attributes":{"OBJECTID":100,"Date":1549497600000,"Lat":29.26894,"Lon":-89.953,"Genus":"Tursiops","Species":"truncatus","Sex":"Unknown","Status":"Advanced Decomposition","County":"Jefferson","State":"LA","F_updated":1588749604701},"geometry":{"x":412299,"y":181235}},{"attributes":{"OBJECTID":101,"Date":1549497600000,"Lat":30.38162,"Lon":-89.02577,"Genus":"Tursiops","Species":"truncatus","Sex":"Male","Status":"Moderate Decomposition","County":"Harrison","State":"MS","F_updated":1588749604701},"geometry":{"x":509828,"y":46327}},{"attributes":{"OBJECTID":102,"Date":1549497600000,"Lat":30.272986,"Lon":-89.37632,"Genus":"Tursiops","Species":"truncatus","Sex":"Male","Status":"Moderate Decomposition","County":"Hancock","State":"MS","F_updated":1588749604701},"geometry":{"x":472956,"y":59565}},{"attributes":{"OBJECTID":103,"Date":1549670400000,"Lat":30.250028,"Lon":-88.1535,"Genus":"Tursiops","Species":"truncatus","Sex":"Unknown","Status":"Moderate Decomposition","County":"Mobile","State":"AL","F_updated":1588749604701},"geometry":{"x":601576,"y":62361}},{"attributes":{"OBJECTID":104,"Date":1549670400000,"Lat":30.301133,"Lon":-87.557382,"Genus":"Tursiops","Species":"truncatus","Sex":"Male","Status":"Fresh Dead","County":"Baldwin","State":"AL","F_updated":1588749604701},"geometry":{"x":664278,"y":56137}},{"attributes":{"OBJECTID":105,"Date":1549670400000,"Lat":30.489437,"Lon":-86.474476,"Genus":"Tursiops","Species":"truncatus","Sex":"Male","Status":"Moderate Decomposition","County":"Okaloosa","State":"FL","F_updated":1588749604701},"geometry":{"x":778182,"y":33174}},{"attributes":{"OBJECTID":106,"Date":1549670400000,"Lat":30.16244,"Lon":-85.738136,"Genus":"Tursiops","Species":"truncatus","Sex":"Male","Status":"Moderate Decomposition","County":"Bay","State":"FL","F_updated":1588749604701},"geometry":{"x":855633,"y":73021}},{"attributes":{"OBJECTID":107,"Date":1549756800000,"Lat":29.74922,"Lon":-93.66268,"Genus":"Tursiops","Species":"truncatus","Sex":"Unknown","Status":"Advanced Decomposition","County":"Cameron","State":"LA","F_updated":1588749604701},"geometry":{"x":22101,"y":123187}},{"attributes":{"OBJECTID":108,"Date":1549756800000,"Lat":29.22365,"Lon":-90.01897,"Genus":"Tursiops","Species":"truncatus","Sex":"Male","Status":"Moderate Decomposition","County":"Jefferson","State":"LA","F_updated":1588749604701},"geometry":{"x":405360,"y":186695}},{"attributes":{"OBJECTID":109,"Date":1549756800000,"Lat":29.76789,"Lon":-93.49105,"Genus":"Tursiops","Species":"truncatus","Sex":"Female","Status":"Moderate Decomposition","County":"Cameron","State":"LA","F_updated":1588749604701},"geometry":{"x":40154,"y":120925}},{"attributes":{"OBJECTID":110,"Date":1550016000000,"Lat":29.681439,"Lon":-85.36677,"Genus":"Tursiops","Species":"truncatus","Sex":"Female","Status":"Moderate Decomposition","County":"Gulf","State":"FL","F_updated":1588749604701},"geometry":{"x":894695,"y":131396}},{"attributes":{"OBJECTID":111,"Date":1550016000000,"Lat":29.0638055,"Lon":-90.85734166,"Genus":"Tursiops","Species":"truncatus","Sex":"Male","Status":"Advanced Decomposition","County":"Terrebonne","State":"LA","F_updated":1588749604701},"geometry":{"x":317177,"y":205945}},{"attributes":{"OBJECTID":112,"Date":1550102400000,"Lat":30.32812,"Lon":-89.29169,"Genus":"Tursiops","Species":"truncatus","Sex":"Female","Status":"Moderate Decomposition","County":"Harrison","State":"MS","F_updated":1588749604701},"geometry":{"x":481857,"y":52849}},{"attributes":{"OBJECTID":113,"Date":1550275200000,"Lat":30.306352,"Lon":-87.5641,"Genus":"Tursiops","Species":"truncatus","Sex":"Male","Status":"Fresh Dead","County":"Baldwin","State":"AL","F_updated":1588749604701},"geometry":{"x":663572,"y":55501}},{"attributes":{"OBJECTID":114,"Date":1550275200000,"Lat":29.246055,"Lon":-89.9655833,"Genus":"Tursiops","Species":"truncatus","Sex":"Unknown","Status":"Advanced Decomposition","County":"Jefferson","State":"LA","F_updated":1588749604701},"geometry":{"x":410975,"y":183994}},{"attributes":{"OBJECTID":115,"Date":1550275200000,"Lat":30.2994,"Lon":-89.3338,"Genus":"Tursiops","Species":"truncatus","Sex":"Female","Status":"Moderate Decomposition","County":"Hancock","State":"MS","F_updated":1588749604701},"geometry":{"x":477428,"y":56348}},{"attributes":{"OBJECTID":116,"Date":1550275200000,"Lat":30.39369,"Lon":-88.91837,"Genus":"Tursiops","Species":"truncatus","Sex":"Female","Status":"Moderate Decomposition","County":"Harrison","State":"MS","F_updated":1588749604701},"geometry":{"x":521125,"y":44855}},{"attributes":{"OBJECTID":117,"Date":1550275200000,"Lat":30.36186,"Lon":-89.08279,"Genus":"Tursiops","Species":"truncatus","Sex":"Male","Status":"Moderate Decomposition","County":"Harrison","State":"MS","F_updated":1588749604701},"geometry":{"x":503830,"y":48736}},{"attributes":{"OBJECTID":118,"Date":1550361600000,"Lat":30.395223,"Lon":-86.5593015,"Genus":"Tursiops","Species":"truncatus","Sex":"Male","Status":"Moderate Decomposition","County":"Okaloosa","State":"FL","F_updated":1588749604701},"geometry":{"x":769260,"y":44669}},{"attributes":{"OBJECTID":119,"Date":1550361600000,"Lat":30.4836081,"Lon":-86.2649787,"Genus":"Tursiops","Species":"truncatus","Sex":"Male","Status":"Moderate Decomposition","County":"Walton","State":"FL","F_updated":1588749604701},"geometry":{"x":800218,"y":33886}},{"attributes":{"OBJECTID":120,"Date":1550448000000,"Lat":30.229518,"Lon":-87.973226,"Genus":"Tursiops","Species":"truncatus","Sex":"Female","Status":"Moderate Decomposition","County":"Mobile","State":"AL","F_updated":1588749604701},"geometry":{"x":620538,"y":64858}},{"attributes":{"OBJECTID":121,"Date":1550448000000,"Lat":29.684041,"Lon":-85.290161,"Genus":"Tursiops","Species":"truncatus","Sex":"Female","Status":"Moderate Decomposition","County":"Gulf","State":"FL","F_updated":1588749604701},"geometry":{"x":902753,"y":131081}},{"attributes":{"OBJECTID":122,"Date":1550448000000,"Lat":29.732764,"Lon":-84.900005,"Genus":"Tursiops","Species":"truncatus","Sex":"Unknown","Status":"Advanced Decomposition","County":"Franklin","State":"FL","F_updated":1588749604701},"geometry":{"x":943791,"y":125181}},{"attributes":{"OBJECTID":123,"Date":1550448000000,"Lat":29.6705833,"Lon":-92.85375,"Genus":"Tursiops","Species":"truncatus","Sex":"Male","Status":"Advanced Decomposition","County":"Cameron","State":"LA","F_updated":1588749604701},"geometry":{"x":107187,"y":132710}},{"attributes":{"OBJECTID":124,"Date":1550448000000,"Lat":30.21458,"Lon":-89.08164,"Genus":"Tursiops","Species":"truncatus","Sex":"Male","Status":"Moderate Decomposition","County":"Harrison","State":"MS","F_updated":1588749604701},"geometry":{"x":503951,"y":66677}},{"attributes":{"OBJECTID":125,"Date":1550707200000,"Lat":30.397211,"Lon":-87.78164,"Genus":"Tursiops","Species":"truncatus","Sex":"Male","Status":"Moderate Decomposition","County":"Baldwin","State":"AL","F_updated":1588749604701},"geometry":{"x":640690,"y":44426}},{"attributes":{"OBJECTID":126,"Date":1550880000000,"Lat":29.750744,"Lon":-84.892381,"Genus":"Tursiops","Species":"truncatus","Sex":"Female","Status":"Mummified/Skeletal","County":"Franklin","State":"FL","F_updated":1588749604701},"geometry":{"x":944592,"y":123002}},{"attributes":{"OBJECTID":127,"Date":1551052800000,"Lat":30.617222,"Lon":-87.913333,"Genus":"Tursiops","Species":"truncatus","Sex":"Male","Status":"Moderate Decomposition","County":"Baldwin","State":"AL","F_updated":1588749604701},"geometry":{"x":626838,"y":17566}},{"attributes":{"OBJECTID":128,"Date":1551052800000,"Lat":30.157485,"Lon":-85.72195,"Genus":"Tursiops","Species":"truncatus","Sex":"Female","Status":"Moderate Decomposition","County":"Bay","State":"FL","F_updated":1588749604701},"geometry":{"x":857335,"y":73624}},{"attributes":{"OBJECTID":129,"Date":1551139200000,"Lat":30.277865,"Lon":-87.725842,"Genus":"Tursiops","Species":"truncatus","Sex":"Female","Status":"Fresh Dead","County":"Baldwin","State":"AL","F_updated":1588749604701},"geometry":{"x":646559,"y":58971}},{"attributes":{"OBJECTID":130,"Date":1551139200000,"Lat":30.310124,"Lon":-87.521967,"Genus":"Tursiops","Species":"truncatus","Sex":"Male","Status":"Fresh Dead","County":"Baldwin","State":"AL","F_updated":1588749604701},"geometry":{"x":668003,"y":55041}},{"attributes":{"OBJECTID":131,"Date":1551225600000,"Lat":29.72083,"Lon":-89.47465,"Genus":"Tursiops","Species":"truncatus","Sex":"Male","Status":"Fresh Dead","County":"Saint Bernard","State":"LA","F_updated":1588749604701},"geometry":{"x":462613,"y":126626}},{"attributes":{"OBJECTID":132,"Date":1551225600000,"Lat":29.76717,"Lon":-93.51313,"Genus":"Tursiops","Species":"truncatus","Sex":"Male","Status":"Advanced Decomposition","County":"Cameron","State":"LA","F_updated":1588749604701},"geometry":{"x":37831,"y":121012}},{"attributes":{"OBJECTID":133,"Date":1562025600000,"Lat":30.299783,"Lon":-87.508127,"Genus":"Tursiops","Species":"truncatus","Sex":"Female","Status":"Fresh Dead","County":"Baldwin","State":"AL","F_updated":1588749604701},"geometry":{"x":669459,"y":56301}},{"attributes":{"OBJECTID":134,"Date":1562371200000,"Lat":30.292542,"Lon":-88.586399,"Genus":"Tursiops","Species":"truncatus","Sex":"Male","Status":"Moderate Decomposition","County":"Jackson","State":"MS","F_updated":1588749604701},"geometry":{"x":556042,"y":57183}},{"attributes":{"OBJECTID":135,"Date":1562889600000,"Lat":30.33666,"Lon":-89.170347,"Genus":"Tursiops","Species":"truncatus","Sex":"Unknown","Status":"Moderate Decomposition","County":"Harrison","State":"MS","F_updated":1588749604701},"geometry":{"x":494621,"y":51808}},{"attributes":{"OBJECTID":136,"Date":1563408000000,"Lat":30.34367,"Lon":-88.73274,"Genus":"Tursiops","Species":"truncatus","Sex":"Female","Status":"Fresh Dead","County":"Jackson","State":"MS","F_updated":1588749604701},"geometry":{"x":540650,"y":50953}},{"attributes":{"OBJECTID":137,"Date":1563753600000,"Lat":29.77706,"Lon":-93.2403,"Genus":"Tursiops","Species":"truncatus","Sex":"Female","Status":"Advanced Decomposition","County":"Cameron","State":"LA","F_updated":1588749604701},"geometry":{"x":66529,"y":119814}},{"attributes":{"OBJECTID":138,"Date":1564185600000,"Lat":30.235668,"Lon":-88.11599,"Genus":"Tursiops","Species":"truncatus","Sex":"Unknown","Status":"Moderate Decomposition","County":"Mobile","State":"AL","F_updated":1588749604701},"geometry":{"x":605522,"y":64109}},{"attributes":{"OBJECTID":139,"Date":1564185600000,"Lat":30.249516,"Lon":-88.146277,"Genus":"Tursiops","Species":"truncatus","Sex":"Male","Status":"Moderate Decomposition","County":"Mobile","State":"AL","F_updated":1588749604701},"geometry":{"x":602336,"y":62423}},{"attributes":{"OBJECTID":140,"Date":1564272000000,"Lat":30.369167,"Lon":-88.321833,"Genus":"Tursiops","Species":"truncatus","Sex":"Unknown","Status":"Moderate Decomposition","County":"Mobile","State":"AL","F_updated":1588749604701},"geometry":{"x":583870,"y":47845}},{"attributes":{"OBJECTID":141,"Date":1564358400000,"Lat":30.25773,"Lon":-89.41312,"Genus":"Tursiops","Species":"truncatus","Sex":"Male","Status":"Moderate Decomposition","County":"Hancock","State":"MS","F_updated":1588749604701},"geometry":{"x":469085,"y":61423}},{"attributes":{"OBJECTID":142,"Date":1559347200000,"Lat":30.3797,"Lon":-89.03309,"Genus":"Tursiops","Species":"truncatus","Sex":"Female","Status":"Moderate Decomposition","County":"Harrison","State":"MS","F_updated":1588749604701},"geometry":{"x":509058,"y":46561}},{"attributes":{"OBJECTID":143,"Date":1559347200000,"Lat":30.37926,"Lon":-89.03631,"Genus":"Tursiops","Species":"truncatus","Sex":"Female","Status":"Moderate Decomposition","County":"Harrison","State":"MS","F_updated":1588749604701},"geometry":{"x":508719,"y":46615}},{"attributes":{"OBJECTID":144,"Date":1559347200000,"Lat":30.242605,"Lon":-88.773239,"Genus":"Tursiops","Species":"truncatus","Sex":"Unknown","Status":"Moderate Decomposition","County":"Harrison","State":"MS","F_updated":1588749604701},"geometry":{"x":536390,"y":63265}},{"attributes":{"OBJECTID":145,"Date":1559433600000,"Lat":30.24898,"Lon":-89.06699,"Genus":"Tursiops","Species":"truncatus","Sex":"Male","Status":"Fresh Dead","County":"Harrison","State":"MS","F_updated":1588749604701},"geometry":{"x":505492,"y":62489}},{"attributes":{"OBJECTID":146,"Date":1559433600000,"Lat":30.342333,"Lon":-88.90425,"Genus":"Tursiops","Species":"truncatus","Sex":"Unknown","Status":"Moderate Decomposition","County":"Harrison","State":"MS","F_updated":1588749604701},"geometry":{"x":522610,"y":51116}},{"attributes":{"OBJECTID":147,"Date":1559433600000,"Lat":30.2594283,"Lon":-89.0823774,"Genus":"Tursiops","Species":"truncatus","Sex":"Unknown","Status":"Moderate Decomposition","County":"Harrison","State":"MS","F_updated":1588749604701},"geometry":{"x":503874,"y":61216}},{"attributes":{"OBJECTID":148,"Date":1559520000000,"Lat":30.22567,"Lon":-88.97444,"Genus":"Tursiops","Species":"truncatus","Sex":"Unknown","Status":"Moderate Decomposition","County":"Harrison","State":"MS","F_updated":1588749604701},"geometry":{"x":515227,"y":65327}},{"attributes":{"OBJECTID":149,"Date":1559520000000,"Lat":30.3899236,"Lon":-88.8871408,"Genus":"Tursiops","Species":"truncatus","Sex":"Female","Status":"Moderate Decomposition","County":"Harrison","State":"MS","F_updated":1588749604701},"geometry":{"x":524409,"y":45315}},{"attributes":{"OBJECTID":150,"Date":1559606400000,"Lat":30.294717,"Lon":-88.119833,"Genus":"Tursiops","Species":"truncatus","Sex":"Unknown","Status":"Moderate Decomposition","County":"Mobile","State":"AL","F_updated":1588749604701},"geometry":{"x":605118,"y":56918}},{"attributes":{"OBJECTID":151,"Date":1559606400000,"Lat":30.39151,"Lon":-88.95066,"Genus":"Tursiops","Species":"truncatus","Sex":"Male","Status":"Moderate Decomposition","County":"Harrison","State":"MS","F_updated":1588749604701},"geometry":{"x":517728,"y":45121}},{"attributes":{"OBJECTID":152,"Date":1559606400000,"Lat":30.245,"Lon":-88.958333,"Genus":"Tursiops","Species":"truncatus","Sex":"Unknown","Status":"Fresh Dead","County":"Harrison","State":"MS","F_updated":1588749604701},"geometry":{"x":516921,"y":62973}},{"attributes":{"OBJECTID":153,"Date":1559606400000,"Lat":30.389704,"Lon":-88.892345,"Genus":"Tursiops","Species":"truncatus","Sex":"Female","Status":"Advanced Decomposition","County":"Harrison","State":"MS","F_updated":1588749604701},"geometry":{"x":523862,"y":45342}},{"attributes":{"OBJECTID":154,"Date":1559606400000,"Lat":30.250933,"Lon":-89.223517,"Genus":"Tursiops","Species":"truncatus","Sex":"Unknown","Status":"Moderate Decomposition","County":"Harrison","State":"MS","F_updated":1588749604701},"geometry":{"x":489028,"y":62251}},{"attributes":{"OBJECTID":155,"Date":1559779200000,"Lat":30.386763,"Lon":-89.00419,"Genus":"Tursiops","Species":"truncatus","Sex":"Female","Status":"Moderate Decomposition","County":"Harrison","State":"MS","F_updated":1588749604701},"geometry":{"x":512098,"y":45700}},{"attributes":{"OBJECTID":156,"Date":1559865600000,"Lat":30.2347,"Lon":-88.88791,"Genus":"Tursiops","Species":"truncatus","Sex":"Unknown","Status":"Moderate Decomposition","County":"Harrison","State":"MS","F_updated":1588749604701},"geometry":{"x":524328,"y":64227}},{"attributes":{"OBJECTID":157,"Date":1559952000000,"Lat":30.266831,"Lon":-87.590148,"Genus":"Tursiops","Species":"truncatus","Sex":"Male","Status":"Fresh Dead","County":"Baldwin","State":"AL","F_updated":1588749604701},"geometry":{"x":660832,"y":60315}},{"attributes":{"OBJECTID":158,"Date":1559952000000,"Lat":30.377854,"Lon":-88.810798,"Genus":"Tursiops","Species":"truncatus","Sex":"Unknown","Status":"Moderate Decomposition","County":"Jackson","State":"MS","F_updated":1588749604701},"geometry":{"x":532439,"y":46786}},{"attributes":{"OBJECTID":159,"Date":1559952000000,"Lat":30.382952,"Lon":-88.869934,"Genus":"Tursiops","Species":"truncatus","Sex":"Male","Status":"Advanced Decomposition","County":"Harrison","State":"MS","F_updated":1588749604701},"geometry":{"x":526219,"y":46165}},{"attributes":{"OBJECTID":160,"Date":1560384000000,"Lat":30.253889,"Lon":-88.193889,"Genus":"Tursiops","Species":"truncatus","Sex":"Female","Status":"Fresh Dead","County":"Mobile","State":"AL","F_updated":1588749604701},"geometry":{"x":597328,"y":61891}},{"attributes":{"OBJECTID":161,"Date":1560384000000,"Lat":30.249872,"Lon":-87.833664,"Genus":"Tursiops","Species":"truncatus","Sex":"Male","Status":"Moderate Decomposition","County":"Baldwin","State":"AL","F_updated":1588749604701},"geometry":{"x":635218,"y":62380}},{"attributes":{"OBJECTID":162,"Date":1560384000000,"Lat":30.3404,"Lon":-89.2425,"Genus":"Tursiops","Species":"truncatus","Sex":"Unknown","Status":"Moderate Decomposition","County":"Harrison","State":"MS","F_updated":1588749604701},"geometry":{"x":487031,"y":51352}},{"attributes":{"OBJECTID":163,"Date":1560816000000,"Lat":29.685718,"Lon":-89.562177,"Genus":"Tursiops","Species":"truncatus","Sex":"Unknown","Status":"Advanced Decomposition","County":"St. Bernard","State":"LA","F_updated":1588749604701},"geometry":{"x":453407,"y":130878}},{"attributes":{"OBJECTID":164,"Date":1560902400000,"Lat":29.7214,"Lon":-89.48373,"Genus":"Tursiops","Species":"truncatus","Sex":"Female","Status":"Moderate Decomposition","County":"St. Bernard","State":"LA","F_updated":1588749604701},"geometry":{"x":461658,"y":126557}},{"attributes":{"OBJECTID":165,"Date":1561161600000,"Lat":30.2477,"Lon":-88.2124,"Genus":"Tursiops","Species":"truncatus","Sex":"Female","Status":"Moderate Decomposition","County":"Mobile","State":"AL","F_updated":1588749604701},"geometry":{"x":595381,"y":62645}},{"attributes":{"OBJECTID":166,"Date":1561248000000,"Lat":29.7585,"Lon":-89.441233,"Genus":"Tursiops","Species":"truncatus","Sex":"Male","Status":"Advanced Decomposition","County":"St. Bernard","State":"LA","F_updated":1588749604701},"geometry":{"x":466128,"y":122063}},{"attributes":{"OBJECTID":167,"Date":1561334400000,"Lat":30.463611,"Lon":-87.917222,"Genus":"Tursiops","Species":"truncatus","Sex":"Unknown","Status":"Moderate Decomposition","County":"Baldwin","State":"AL","F_updated":1588749604701},"geometry":{"x":626429,"y":36326}},{"attributes":{"OBJECTID":168,"Date":1561420800000,"Lat":29.1599,"Lon":-90.0995,"Genus":"Tursiops","Species":"truncatus","Sex":"Unknown","Status":"Advanced Decomposition","County":"Lafourche","State":"LA","F_updated":1588749604701},"geometry":{"x":396889,"y":194376}},{"attributes":{"OBJECTID":169,"Date":1561507200000,"Lat":30.00735,"Lon":-89.14424,"Genus":"Tursiops","Species":"truncatus","Sex":"Unknown","Status":"Fresh Dead","County":"St. Bernard","State":"LA","F_updated":1588749604701},"geometry":{"x":497367,"y":91874}},{"attributes":{"OBJECTID":170,"Date":1561593600000,"Lat":30.274117,"Lon":-89.215283,"Genus":"Tursiops","Species":"truncatus","Sex":"Unknown","Status":"Moderate Decomposition","County":"Harrison","State":"MS","F_updated":1588749604701},"geometry":{"x":489894,"y":59428}},{"attributes":{"OBJECTID":171,"Date":1551398400000,"Lat":30.324097,"Lon":-86.154944,"Genus":"Tursiops","Species":"truncatus","Sex":"Unknown","Status":"Moderate Decomposition","County":"Walton","State":"FL","F_updated":1588749604701},"geometry":{"x":811792,"y":53339}},{"attributes":{"OBJECTID":172,"Date":1551484800000,"Lat":30.10191,"Lon":-85.678744,"Genus":"Tursiops","Species":"truncatus","Sex":"Female","Status":"Fresh Dead","County":"Bay","State":"FL","F_updated":1588749604701},"geometry":{"x":861880,"y":80383}},{"attributes":{"OBJECTID":173,"Date":1551484800000,"Lat":30.25167,"Lon":-88.71277,"Genus":"Tursiops","Species":"truncatus","Sex":"Male","Status":"Moderate Decomposition","County":"Jackson","State":"MS","F_updated":1588749604701},"geometry":{"x":542750,"y":62161}},{"attributes":{"OBJECTID":174,"Date":1551484800000,"Lat":30.34482,"Lon":-89.1451,"Genus":"Tursiops","Species":"truncatus","Sex":"Male","Status":"Moderate Decomposition","County":"Harrison","State":"MS","F_updated":1588749604701},"geometry":{"x":497276,"y":50813}},{"attributes":{"OBJECTID":175,"Date":1551571200000,"Lat":29.735674,"Lon":-85.389442,"Genus":"Tursiops","Species":"truncatus","Sex":"Female","Status":"Moderate Decomposition","County":"Gulf","State":"FL","F_updated":1588749604701},"geometry":{"x":892310,"y":124828}},{"attributes":{"OBJECTID":176,"Date":1551571200000,"Lat":29.769067,"Lon":-84.798181,"Genus":"Tursiops","Species":"truncatus","Sex":"Female","Status":"Moderate Decomposition","County":"Franklin","State":"FL","F_updated":1588749604701},"geometry":{"x":954501,"y":120782}},{"attributes":{"OBJECTID":177,"Date":1551571200000,"Lat":30.389262,"Lon":-88.983368,"Genus":"Tursiops","Species":"truncatus","Sex":"Male","Status":"Moderate Decomposition","County":"Harrison","State":"MS","F_updated":1588749604701},"geometry":{"x":514288,"y":45395}},{"attributes":{"OBJECTID":178,"Date":1551744000000,"Lat":29.72987,"Lon":-84.884436,"Genus":"Tursiops","Species":"truncatus","Sex":"Male","Status":"Alive","County":"Franklin","State":"FL","F_updated":1588749604701},"geometry":{"x":945428,"y":125531}},{"attributes":{"OBJECTID":179,"Date":1551916800000,"Lat":30.576224,"Lon":-87.186338,"Genus":"Tursiops","Species":"truncatus","Sex":"Male","Status":"Moderate Decomposition","County":"Santa Rosa","State":"FL","F_updated":1588749604701},"geometry":{"x":703306,"y":22576}},{"attributes":{"OBJECTID":180,"Date":1551916800000,"Lat":29.2517583,"Lon":-89.9563583,"Genus":"Tursiops","Species":"truncatus","Sex":"Male","Status":"Fresh Dead","County":"Jefferson","State":"LA","F_updated":1588749604701},"geometry":{"x":411945,"y":183307}},{"attributes":{"OBJECTID":181,"Date":1552003200000,"Lat":30.248629,"Lon":-88.196482,"Genus":"Tursiops","Species":"truncatus","Sex":"Male","Status":"Moderate Decomposition","County":"Mobile","State":"AL","F_updated":1588749604701},"geometry":{"x":597055,"y":62531}},{"attributes":{"OBJECTID":182,"Date":1552003200000,"Lat":30.36281,"Lon":-88.76653,"Genus":"Tursiops","Species":"truncatus","Sex":"Male","Status":"Moderate Decomposition","County":"Jackson","State":"MS","F_updated":1588749604701},"geometry":{"x":537096,"y":48620}},{"attributes":{"OBJECTID":183,"Date":1552089600000,"Lat":30.228898,"Lon":-87.817119,"Genus":"Tursiops","Species":"truncatus","Sex":"Female","Status":"Moderate Decomposition","County":"Baldwin","State":"AL","F_updated":1588749604701},"geometry":{"x":636958,"y":64934}},{"attributes":{"OBJECTID":184,"Date":1552089600000,"Lat":29.686546,"Lon":-89.739661,"Genus":"Tursiops","Species":"truncatus","Sex":"Unknown","Status":"Moderate Decomposition","County":"Plaquemines","State":"LA","F_updated":1588749604701},"geometry":{"x":434738,"y":130778}},{"attributes":{"OBJECTID":185,"Date":1552176000000,"Lat":30.3152,"Lon":-87.3406,"Genus":"Tursiops","Species":"truncatus","Sex":"Male","Status":"Moderate Decomposition","County":"Escambia","State":"FL","F_updated":1588749604701},"geometry":{"x":687080,"y":54423}},{"attributes":{"OBJECTID":186,"Date":1552176000000,"Lat":30.395,"Lon":-86.556,"Genus":"Tursiops","Species":"truncatus","Sex":"Unknown","Status":"Advanced Decomposition","County":"Okaloosa","State":"FL","F_updated":1588749604701},"geometry":{"x":769607,"y":44696}},{"attributes":{"OBJECTID":187,"Date":1552176000000,"Lat":29.76918,"Lon":-93.45737,"Genus":"Tursiops","Species":"truncatus","Sex":"Male","Status":"Advanced Decomposition","County":"Cameron","State":"LA","F_updated":1588749604701},"geometry":{"x":43696,"y":120769}},{"attributes":{"OBJECTID":188,"Date":1552176000000,"Lat":29.66954583,"Lon":-92.8507388,"Genus":"Tursiops","Species":"truncatus","Sex":"Female","Status":"Alive","County":"Cameron","State":"LA","F_updated":1588749604701},"geometry":{"x":107504,"y":132836}},{"attributes":{"OBJECTID":189,"Date":1552262400000,"Lat":30.243816,"Lon":-88.126858,"Genus":"Tursiops","Species":"truncatus","Sex":"Male","Status":"Moderate Decomposition","County":"Mobile","State":"AL","F_updated":1588749604701},"geometry":{"x":604379,"y":63117}},{"attributes":{"OBJECTID":190,"Date":1552348800000,"Lat":30.484358,"Lon":-88.100741,"Genus":"Tursiops","Species":"truncatus","Sex":"Female","Status":"Moderate Decomposition","County":"Mobile","State":"AL","F_updated":1588749604701},"geometry":{"x":607126,"y":33794}},{"attributes":{"OBJECTID":191,"Date":1552608000000,"Lat":29.349175,"Lon":-89.537898,"Genus":"Tursiops","Species":"truncatus","Sex":"Female","Status":"Advanced Decomposition","County":"Plaquemines","State":"LA","F_updated":1588749604701},"geometry":{"x":455960,"y":171557}},{"attributes":{"OBJECTID":192,"Date":1552867200000,"Lat":29.701189,"Lon":-84.798329,"Genus":"Tursiops","Species":"truncatus","Sex":"Male","Status":"Advanced Decomposition","County":"Franklin","State":"FL","F_updated":1588749604701},"geometry":{"x":954485,"y":129005}},{"attributes":{"OBJECTID":193,"Date":1552867200000,"Lat":29.77292,"Lon":-93.2933,"Genus":"Tursiops","Species":"truncatus","Sex":"Unknown","Status":"Advanced Decomposition","County":"Cameron","State":"LA","F_updated":1588749604701},"geometry":{"x":60954,"y":120315}},{"attributes":{"OBJECTID":194,"Date":1552867200000,"Lat":29.77472,"Lon":-93.28161,"Genus":"Tursiops","Species":"truncatus","Sex":"Female","Status":"Advanced Decomposition","County":"Cameron","State":"LA","F_updated":1588749604701},"geometry":{"x":62183,"y":120097}},{"attributes":{"OBJECTID":195,"Date":1552867200000,"Lat":29.77709,"Lon":-93.2455,"Genus":"Tursiops","Species":"truncatus","Sex":"Male","Status":"Advanced Decomposition","County":"Cameron","State":"LA","F_updated":1588749604701},"geometry":{"x":65982,"y":119810}},{"attributes":{"OBJECTID":196,"Date":1552867200000,"Lat":29.10565,"Lon":-90.18366,"Genus":"Tursiops","Species":"truncatus","Sex":"Unknown","Status":"Advanced Decomposition","County":"La Fourche","State":"LA","F_updated":1588749604701},"geometry":{"x":388037,"y":200908}},{"attributes":{"OBJECTID":197,"Date":1552953600000,"Lat":29.77255,"Lon":-93.19239,"Genus":"Tursiops","Species":"truncatus","Sex":"Female","Status":"Moderate Decomposition","County":"Cameron","State":"LA","F_updated":1588749604701},"geometry":{"x":71568,"y":120360}},{"attributes":{"OBJECTID":198,"Date":1552953600000,"Lat":29.76197,"Lon":-93.5613,"Genus":"Tursiops","Species":"truncatus","Sex":"Male","Status":"Moderate Decomposition","County":"Cameron","State":"LA","F_updated":1588749604701},"geometry":{"x":32765,"y":121642}},{"attributes":{"OBJECTID":199,"Date":1552953600000,"Lat":30.42934,"Lon":-88.86906,"Genus":"Tursiops","Species":"truncatus","Sex":"Male","Status":"Advanced Decomposition","County":"Harrison","State":"MS","F_updated":1588749604701},"geometry":{"x":526311,"y":40507}},{"attributes":{"OBJECTID":200,"Date":1553040000000,"Lat":29.24117,"Lon":-89.97577,"Genus":"Tursiops","Species":"truncatus","Sex":"Male","Status":"Fresh Dead","County":"Jefferson","State":"LA","F_updated":1588749604701},"geometry":{"x":409903,"y":184583}},{"attributes":{"OBJECTID":201,"Date":1553040000000,"Lat":29.779267,"Lon":-89.366967,"Genus":"Tursiops","Species":"truncatus","Sex":"Unknown","Status":"Advanced Decomposition","County":"St. Bernard","State":"LA","F_updated":1588749604701},"geometry":{"x":473940,"y":119546}},{"attributes":{"OBJECTID":202,"Date":1553040000000,"Lat":29.29955,"Lon":-89.63969,"Genus":"Tursiops","Species":"truncatus","Sex":"Male","Status":"Advanced Decomposition","County":"Plaquamine","State":"LA","F_updated":1588749604701},"geometry":{"x":445254,"y":177544}},{"attributes":{"OBJECTID":203,"Date":1553126400000,"Lat":29.790904,"Lon":-85.411499,"Genus":"Tursiops","Species":"truncatus","Sex":"Male","Status":"Fresh Dead","County":"Gulf","State":"FL","F_updated":1588749604701},"geometry":{"x":889990,"y":118136}},{"attributes":{"OBJECTID":204,"Date":1553212800000,"Lat":30.4510114,"Lon":-86.49112998,"Genus":"Tursiops","Species":"truncatus","Sex":"Female","Status":"Fresh Dead","County":"Okaloosa","State":"FL","F_updated":1588749604701},"geometry":{"x":776430,"y":37864}},{"attributes":{"OBJECTID":205,"Date":1553212800000,"Lat":30.4188779,"Lon":-86.5885631,"Genus":"Tursiops","Species":"truncatus","Sex":"Unknown","Status":"Advanced Decomposition","County":"Okaloosa","State":"FL","F_updated":1588749604701},"geometry":{"x":766182,"y":41784}},{"attributes":{"OBJECTID":206,"Date":1553212800000,"Lat":29.3451166,"Lon":-89.745033,"Genus":"Tursiops","Species":"truncatus","Sex":"Unknown","Status":"Fresh Dead","County":"Plaquamine","State":"LA","F_updated":1588749604701},"geometry":{"x":434173,"y":172046}},{"attributes":{"OBJECTID":207,"Date":1553299200000,"Lat":30.3648,"Lon":-86.3189,"Genus":"Tursiops","Species":"truncatus","Sex":"Unknown","Status":"Fresh Dead","County":"Walton","State":"FL","F_updated":1588749604701},"geometry":{"x":794546,"y":48378}},{"attributes":{"OBJECTID":208,"Date":1553299200000,"Lat":30.22775,"Lon":-85.76822,"Genus":"Tursiops","Species":"truncatus","Sex":"Male","Status":"Moderate Decomposition","County":"Bay","State":"FL","F_updated":1588749604701},"geometry":{"x":852469,"y":65073}},{"attributes":{"OBJECTID":209,"Date":1553299200000,"Lat":30.25267,"Lon":-88.88783,"Genus":"Tursiops","Species":"truncatus","Sex":"Female","Status":"Fresh Dead","County":"Harrison","State":"MS","F_updated":1588749604701},"geometry":{"x":524337,"y":62039}},{"attributes":{"OBJECTID":210,"Date":1553299200000,"Lat":30.31175,"Lon":-89.25088,"Genus":"Tursiops","Species":"truncatus","Sex":"Male","Status":"Fresh Dead","County":"Harrison","State":"MS","F_updated":1588749604701},"geometry":{"x":486150,"y":54843}},{"attributes":{"OBJECTID":211,"Date":1553385600000,"Lat":29.764862,"Lon":-85.403064,"Genus":"Tursiops","Species":"truncatus","Sex":"Female","Status":"Fresh Dead","County":"Gulf","State":"FL","F_updated":1588749604701},"geometry":{"x":890877,"y":121292}},{"attributes":{"OBJECTID":212,"Date":1553385600000,"Lat":29.26048,"Lon":-89.5815,"Genus":"Tursiops","Species":"truncatus","Sex":"Male","Status":"Advanced Decomposition","County":"St. Bernard","State":"LA","F_updated":1588749604701},"geometry":{"x":451374,"y":182255}},{"attributes":{"OBJECTID":213,"Date":1553385600000,"Lat":29.48988,"Lon":-89.90265,"Genus":"Tursiops","Species":"truncatus","Sex":"Unknown","Status":"Advanced Decomposition","County":"Plaquemines","State":"LA","F_updated":1588749604701},"geometry":{"x":417595,"y":154566}},{"attributes":{"OBJECTID":214,"Date":1553385600000,"Lat":29.266333,"Lon":-89.954333,"Genus":"Tursiops","Species":"truncatus","Sex":"Unknown","Status":"Advanced Decomposition","County":"Jefferson","State":"LA","F_updated":1588749604701},"geometry":{"x":412158,"y":181549}},{"attributes":{"OBJECTID":215,"Date":1553385600000,"Lat":30.237433,"Lon":-89.073267,"Genus":"Tursiops","Species":"truncatus","Sex":"Unknown","Status":"Advanced Decomposition","County":"Harrison","State":"MS","F_updated":1588749604701},"geometry":{"x":504832,"y":63895}},{"attributes":{"OBJECTID":216,"Date":1553558400000,"Lat":30.253153,"Lon":-88.141528,"Genus":"Tursiops","Species":"truncatus","Sex":"Male","Status":"Moderate Decomposition","County":"Mobile","State":"AL","F_updated":1588749604701},"geometry":{"x":602836,"y":61981}},{"attributes":{"OBJECTID":217,"Date":1553731200000,"Lat":30.3291,"Lon":-89.19576,"Genus":"Tursiops","Species":"truncatus","Sex":"Female","Status":"Moderate Decomposition","County":"Harrison","State":"MS","F_updated":1588749604701},"geometry":{"x":491948,"y":52729}},{"attributes":{"OBJECTID":218,"Date":1553731200000,"Lat":30.392549,"Lon":-88.934972,"Genus":"Tursiops","Species":"truncatus","Sex":"Female","Status":"Fresh Dead","County":"Harrison","State":"MS","F_updated":1588749604701},"geometry":{"x":519378,"y":44995}},{"attributes":{"OBJECTID":219,"Date":1553817600000,"Lat":29.206672,"Lon":-90.04071389,"Genus":"Tursiops","Species":"truncatus","Sex":"Unknown","Status":"Condition Unknown","County":"Jefferson","State":"LA","F_updated":1588749604701},"geometry":{"x":403072,"y":188741}},{"attributes":{"OBJECTID":220,"Date":1553817600000,"Lat":30.393873,"Lon":-88.914371,"Genus":"Tursiops","Species":"truncatus","Sex":"Male","Status":"Fresh Dead","County":"Harrison","State":"MS","F_updated":1588749604701},"geometry":{"x":521545,"y":44833}},{"attributes":{"OBJECTID":221,"Date":1553904000000,"Lat":30.38358,"Lon":-89.01844,"Genus":"Tursiops","Species":"truncatus","Sex":"Female","Status":"Fresh Dead","County":"Harrison","State":"MS","F_updated":1588749604701},"geometry":{"x":510599,"y":46088}},{"attributes":{"OBJECTID":222,"Date":1553904000000,"Lat":30.364285,"Lon":-89.083449,"Genus":"Tursiops","Species":"truncatus","Sex":"Female","Status":"Moderate Decomposition","County":"Harrison","State":"MS","F_updated":1588749604701},"geometry":{"x":503761,"y":48441}},{"attributes":{"OBJECTID":223,"Date":1553904000000,"Lat":30.28591,"Lon":-89.364226,"Genus":"Tursiops","Species":"truncatus","Sex":"Male","Status":"Moderate Decomposition","County":"Hancock","State":"MS","F_updated":1588749604701},"geometry":{"x":474228,"y":57991}},{"attributes":{"OBJECTID":224,"Date":1556668800000,"Lat":29.55416,"Lon":-92.22916,"Genus":"Tursiops","Species":"truncatus","Sex":"Male","Status":"Advanced Decomposition","County":"Vermillion","State":"LA","F_updated":1588749604701},"geometry":{"x":172884,"y":146796}},{"attributes":{"OBJECTID":225,"Date":1556668800000,"Lat":30.289178,"Lon":-89.357147,"Genus":"Tursiops","Species":"truncatus","Sex":"Unknown","Status":"Advanced Decomposition","County":"Hancock","State":"MS","F_updated":1588749604701},"geometry":{"x":474972,"y":57593}},{"attributes":{"OBJECTID":226,"Date":1556668800000,"Lat":30.248328,"Lon":-89.423033,"Genus":"Tursiops","Species":"truncatus","Sex":"Unknown","Status":"Moderate Decomposition","County":"Hancock","State":"MS","F_updated":1588749604701},"geometry":{"x":468042,"y":62568}},{"attributes":{"OBJECTID":227,"Date":1556755200000,"Lat":29.82635,"Lon":-89.59966,"Genus":"Tursiops","Species":"truncatus","Sex":"Unknown","Status":"Advanced Decomposition","County":"St. Bernard","State":"LA","F_updated":1588749604701},"geometry":{"x":449464,"y":113839}},{"attributes":{"OBJECTID":228,"Date":1556755200000,"Lat":29.18431,"Lon":-90.05753,"Genus":"Tursiops","Species":"truncatus","Sex":"Female","Status":"Fresh Dead","County":"Jefferson","State":"LA","F_updated":1588749604701},"geometry":{"x":401304,"y":191435}},{"attributes":{"OBJECTID":229,"Date":1556755200000,"Lat":30.29883,"Lon":-89.33486,"Genus":"Tursiops","Species":"truncatus","Sex":"Male","Status":"Moderate Decomposition","County":"Hancock","State":"MS","F_updated":1588749604701},"geometry":{"x":477317,"y":56417}},{"attributes":{"OBJECTID":230,"Date":1556755200000,"Lat":30.348713,"Lon":-89.137392,"Genus":"Tursiops","Species":"truncatus","Sex":"Male","Status":"Moderate Decomposition","County":"Harrison","State":"MS","F_updated":1588749604701},"geometry":{"x":498087,"y":50339}},{"attributes":{"OBJECTID":231,"Date":1556755200000,"Lat":30.3041,"Lon":-89.27917,"Genus":"Tursiops","Species":"truncatus","Sex":"Male","Status":"Moderate Decomposition","County":"Harrison","State":"MS","F_updated":1588749604701},"geometry":{"x":483174,"y":55775}},{"attributes":{"OBJECTID":232,"Date":1556755200000,"Lat":30.206805,"Lon":-89.09563,"Genus":"Tursiops","Species":"truncatus","Sex":"Unknown","Status":"Moderate Decomposition","County":"Harrison","State":"MS","F_updated":1588749604701},"geometry":{"x":502480,"y":67623}},{"attributes":{"OBJECTID":233,"Date":1556755200000,"Lat":30.218623,"Lon":-89.078348,"Genus":"Tursiops","Species":"truncatus","Sex":"Unknown","Status":"Moderate Decomposition","County":"Harrison","State":"MS","F_updated":1588749604701},"geometry":{"x":504298,"y":66184}},{"attributes":{"OBJECTID":234,"Date":1556755200000,"Lat":30.27261,"Lon":-89.376681,"Genus":"Tursiops","Species":"truncatus","Sex":"Unknown","Status":"Advanced Decomposition","County":"Hancock","State":"MS","F_updated":1588749604701},"geometry":{"x":472918,"y":59611}},{"attributes":{"OBJECTID":235,"Date":1556841600000,"Lat":29.70365,"Lon":-89.51825,"Genus":"Tursiops","Species":"truncatus","Sex":"Male","Status":"Advanced Decomposition","County":"St. Bernard","State":"LA","F_updated":1588749604701},"geometry":{"x":458027,"y":128707}},{"attributes":{"OBJECTID":236,"Date":1556841600000,"Lat":29.856533,"Lon":-89.59871667,"Genus":"Tursiops","Species":"truncatus","Sex":"Unknown","Status":"Advanced Decomposition","County":"St. Bernard","State":"LA","F_updated":1588749604701},"geometry":{"x":449563,"y":110179}},{"attributes":{"OBJECTID":237,"Date":1556841600000,"Lat":30.21432,"Lon":-89.10426,"Genus":"Tursiops","Species":"truncatus","Sex":"Male","Status":"Moderate Decomposition","County":"Harrison","State":"MS","F_updated":1588749604701},"geometry":{"x":501572,"y":66708}},{"attributes":{"OBJECTID":238,"Date":1556841600000,"Lat":30.345117,"Lon":-88.50877,"Genus":"Tursiops","Species":"truncatus","Sex":"Unknown","Status":"Advanced Decomposition","County":"Jackson","State":"MS","F_updated":1588749604701},"geometry":{"x":564208,"y":50777}},{"attributes":{"OBJECTID":239,"Date":1556841600000,"Lat":30.30322,"Lon":-89.329291,"Genus":"Tursiops","Species":"truncatus","Sex":"Female","Status":"Moderate Decomposition","County":"Hancock","State":"MS","F_updated":1588749604701},"geometry":{"x":477902,"y":55882}},{"attributes":{"OBJECTID":240,"Date":1556928000000,"Lat":30.34496,"Lon":-89.1451,"Genus":"Tursiops","Species":"truncatus","Sex":"Male","Status":"Moderate Decomposition","County":"Harrison","State":"MS","F_updated":1588749604701},"geometry":{"x":497276,"y":50796}},{"attributes":{"OBJECTID":241,"Date":1556928000000,"Lat":30.34905,"Lon":-89.13695,"Genus":"Tursiops","Species":"truncatus","Sex":"Unknown","Status":"Moderate Decomposition","County":"Harrison","State":"MS","F_updated":1588749604701},"geometry":{"x":498134,"y":50298}},{"attributes":{"OBJECTID":242,"Date":1556928000000,"Lat":30.388577,"Lon":-88.990525,"Genus":"Tursiops","Species":"truncatus","Sex":"Male","Status":"Moderate Decomposition","County":"Harrison","State":"MS","F_updated":1588749604701},"geometry":{"x":513535,"y":45479}},{"attributes":{"OBJECTID":243,"Date":1556928000000,"Lat":30.331227,"Lon":-89.187921,"Genus":"Tursiops","Species":"truncatus","Sex":"Female","Status":"Moderate Decomposition","County":"Harrison","State":"MS","F_updated":1588749604701},"geometry":{"x":492772,"y":52470}},{"attributes":{"OBJECTID":244,"Date":1556928000000,"Lat":29.76028333,"Lon":-89.67768333,"Genus":"Tursiops","Species":"truncatus","Sex":"Unknown","Status":"Advanced Decomposition","County":"St. Bernard","State":"LA","F_updated":1588749604701},"geometry":{"x":441257,"y":121847}},{"attributes":{"OBJECTID":245,"Date":1557014400000,"Lat":29.8947,"Lon":-89.352183,"Genus":"Tursiops","Species":"truncatus","Sex":"Unknown","Status":"Advanced Decomposition","County":"Saint Bernard","State":"LA","F_updated":1588749604701},"geometry":{"x":475495,"y":105549}},{"attributes":{"OBJECTID":246,"Date":1557014400000,"Lat":29.667966,"Lon":-89.5868833,"Genus":"Tursiops","Species":"truncatus","Sex":"Unknown","Status":"Advanced Decomposition","County":"St Bernard","State":"LA","F_updated":1588749604701},"geometry":{"x":450808,"y":133027}},{"attributes":{"OBJECTID":247,"Date":1557014400000,"Lat":30.155785,"Lon":-89.613026,"Genus":"Tursiops","Species":"truncatus","Sex":"Unknown","Status":"Advanced Decomposition","County":"St. Tammany","State":"LA","F_updated":1588749604701},"geometry":{"x":448058,"y":73831}},{"attributes":{"OBJECTID":248,"Date":1557014400000,"Lat":30.03333,"Lon":-89.2361,"Genus":"Tursiops","Species":"truncatus","Sex":"Unknown","Status":"Advanced Decomposition","County":"St. Bernard","State":"LA","F_updated":1588749604701},"geometry":{"x":487705,"y":88718}},{"attributes":{"OBJECTID":249,"Date":1557014400000,"Lat":30.00366,"Lon":-89.36043,"Genus":"Tursiops","Species":"truncatus","Sex":"Unknown","Status":"Advanced Decomposition","County":"St. Bernard","State":"LA","F_updated":1588749604701},"geometry":{"x":474627,"y":92322}},{"attributes":{"OBJECTID":250,"Date":1557014400000,"Lat":30.370648,"Lon":-89.351147,"Genus":"Tursiops","Species":"truncatus","Sex":"Unknown","Status":"Moderate Decomposition","County":"Hancock","State":"MS","F_updated":1588749604701},"geometry":{"x":475604,"y":47665}},{"attributes":{"OBJECTID":251,"Date":1557100800000,"Lat":29.636233,"Lon":-89.5026,"Genus":"Tursiops","Species":"truncatus","Sex":"Male","Status":"Advanced Decomposition","County":"Saint Bernard","State":"LA","F_updated":1588749604701},"geometry":{"x":459673,"y":136868}},{"attributes":{"OBJECTID":252,"Date":1557100800000,"Lat":29.673683,"Lon":-89.55385,"Genus":"Tursiops","Species":"truncatus","Sex":"Male","Status":"Advanced Decomposition","County":"St. Bernard","State":"LA","F_updated":1588749604701},"geometry":{"x":454283,"y":132335}},{"attributes":{"OBJECTID":253,"Date":1557100800000,"Lat":30.29468,"Lon":-89.3418,"Genus":"Tursiops","Species":"truncatus","Sex":"Female","Status":"Moderate Decomposition","County":"Hancock","State":"MS","F_updated":1588749604701},"geometry":{"x":476587,"y":56923}},{"attributes":{"OBJECTID":254,"Date":1557187200000,"Lat":29.24947,"Lon":-89.96004,"Genus":"Tursiops","Species":"truncatus","Sex":"Male","Status":"Fresh Dead","County":"Jefferson","State":"LA","F_updated":1588749604701},"geometry":{"x":411558,"y":183582}},{"attributes":{"OBJECTID":255,"Date":1557187200000,"Lat":29.181,"Lon":-90.064,"Genus":"Tursiops","Species":"truncatus","Sex":"Unknown","Status":"Advanced Decomposition","County":"Jefferson","State":"LA","F_updated":1588749604701},"geometry":{"x":400623,"y":191834}},{"attributes":{"OBJECTID":256,"Date":1557187200000,"Lat":30.12165,"Lon":-89.2235,"Genus":"Tursiops","Species":"truncatus","Sex":"Unknown","Status":"Advanced Decomposition","County":"Saint Bernard","State":"LA","F_updated":1588749604701},"geometry":{"x":489030,"y":77983}},{"attributes":{"OBJECTID":257,"Date":1557187200000,"Lat":29.741833,"Lon":-89.552467,"Genus":"Tursiops","Species":"truncatus","Sex":"Female","Status":"Advanced Decomposition","County":"St. Bernard","State":"LA","F_updated":1588749604701},"geometry":{"x":454428,"y":124082}},{"attributes":{"OBJECTID":258,"Date":1557187200000,"Lat":29.662883,"Lon":-89.4633,"Genus":"Tursiops","Species":"truncatus","Sex":"Female","Status":"Moderate Decomposition","County":"St. Bernard","State":"LA","F_updated":1588749604701},"geometry":{"x":463807,"y":133642}},{"attributes":{"OBJECTID":259,"Date":1557187200000,"Lat":29.24949,"Lon":-89.96004,"Genus":"Tursiops","Species":"truncatus","Sex":"Unknown","Status":"Advanced Decomposition","County":"Jefferson","State":"LA","F_updated":1588749604701},"geometry":{"x":411558,"y":183580}},{"attributes":{"OBJECTID":260,"Date":1557360000000,"Lat":29.977064,"Lon":-93.339291,"Genus":"Tursiops","Species":"truncatus","Sex":"Unknown","Status":"Condition Unknown","County":"Cameron","State":"LA","F_updated":1588749604701},"geometry":{"x":56116,"y":95552}},{"attributes":{"OBJECTID":261,"Date":1557360000000,"Lat":30.31911,"Lon":-89.22984,"Genus":"Tursiops","Species":"truncatus","Sex":"Female","Status":"Moderate Decomposition","County":"Harrison","State":"MS","F_updated":1588749604701},"geometry":{"x":488363,"y":53946}},{"attributes":{"OBJECTID":262,"Date":1557532800000,"Lat":29.72081,"Lon":-89.52792,"Genus":"Tursiops","Species":"truncatus","Sex":"Unknown","Status":"Advanced Decomposition","County":"St. Bernard","State":"LA","F_updated":1588749604701},"geometry":{"x":457010,"y":126628}},{"attributes":{"OBJECTID":263,"Date":1557532800000,"Lat":29.66537,"Lon":-89.46658,"Genus":"Tursiops","Species":"truncatus","Sex":"Female","Status":"Advanced Decomposition","County":"St. Bernard","State":"LA","F_updated":1588749604701},"geometry":{"x":463462,"y":133341}},{"attributes":{"OBJECTID":264,"Date":1557532800000,"Lat":30.303489,"Lon":-89.281822,"Genus":"Tursiops","Species":"truncatus","Sex":"Male","Status":"Moderate Decomposition","County":"Harrison","State":"MS","F_updated":1588749604701},"geometry":{"x":482895,"y":55850}},{"attributes":{"OBJECTID":265,"Date":1557792000000,"Lat":30.26355,"Lon":-87.550067,"Genus":"Tursiops","Species":"truncatus","Sex":"Male","Status":"Moderate Decomposition","County":"Baldwin","State":"AL","F_updated":1588749604701},"geometry":{"x":665048,"y":60714}},{"attributes":{"OBJECTID":266,"Date":1557792000000,"Lat":30.01478,"Lon":-89.51727,"Genus":"Tursiops","Species":"truncatus","Sex":"Unknown","Status":"Advanced Decomposition","County":"St. Bernard","State":"LA","F_updated":1588749604701},"geometry":{"x":458130,"y":90972}},{"attributes":{"OBJECTID":267,"Date":1557792000000,"Lat":30.238105,"Lon":-89.424393,"Genus":"Tursiops","Species":"truncatus","Sex":"Unknown","Status":"Moderate Decomposition","County":"Hancock","State":"MS","F_updated":1588749604701},"geometry":{"x":467899,"y":63813}},{"attributes":{"OBJECTID":268,"Date":1557878400000,"Lat":30.0435,"Lon":-89.7911,"Genus":"Tursiops","Species":"truncatus","Sex":"Unknown","Status":"Advanced Decomposition","County":"Orleans","State":"LA","F_updated":1588749604701},"geometry":{"x":429328,"y":87482}},{"attributes":{"OBJECTID":269,"Date":1557878400000,"Lat":29.401316,"Lon":-90.301593,"Genus":"Tursiops","Species":"truncatus","Sex":"Unknown","Status":"Alive","County":"La Fourche","State":"LA","F_updated":1588749604701},"geometry":{"x":375632,"y":165263}},{"attributes":{"OBJECTID":270,"Date":1557878400000,"Lat":29.401316,"Lon":-90.301593,"Genus":"Tursiops","Species":"truncatus","Sex":"Unknown","Status":"Alive","County":"La Fourche","State":"LA","F_updated":1588749604701},"geometry":{"x":375632,"y":165263}},{"attributes":{"OBJECTID":271,"Date":1557878400000,"Lat":29.191177,"Lon":-90.046809,"Genus":"Tursiops","Species":"truncatus","Sex":"Male","Status":"Advanced Decomposition","County":"Jefferson","State":"LA","F_updated":1588749604701},"geometry":{"x":402431,"y":190608}},{"attributes":{"OBJECTID":272,"Date":1557964800000,"Lat":29.69886,"Lon":-89.348616,"Genus":"Tursiops","Species":"truncatus","Sex":"Unknown","Status":"Moderate Decomposition","County":"St. Bernard","State":"LA","F_updated":1588749604701},"geometry":{"x":475870,"y":129287}},{"attributes":{"OBJECTID":273,"Date":1557964800000,"Lat":29.1844,"Lon":-90.0575,"Genus":"Tursiops","Species":"truncatus","Sex":"Male","Status":"Advanced Decomposition","County":"Jefferson","State":"LA","F_updated":1588749604701},"geometry":{"x":401307,"y":191424}},{"attributes":{"OBJECTID":274,"Date":1558051200000,"Lat":29.603363,"Lon":-89.653403,"Genus":"Tursiops","Species":"truncatus","Sex":"Unknown","Status":"Advanced Decomposition","County":"Plaquemines","State":"LA","F_updated":1588749604701},"geometry":{"x":443811,"y":140845}},{"attributes":{"OBJECTID":275,"Date":1558137600000,"Lat":30.32931,"Lon":-89.19528,"Genus":"Tursiops","Species":"truncatus","Sex":"Male","Status":"Moderate Decomposition","County":"Harrison","State":"MS","F_updated":1588749604701},"geometry":{"x":491998,"y":52704}},{"attributes":{"OBJECTID":276,"Date":1558224000000,"Lat":30.281658,"Lon":-89.368948,"Genus":"Tursiops","Species":"truncatus","Sex":"Unknown","Status":"Moderate Decomposition","County":"Hancock","State":"MS","F_updated":1588749604701},"geometry":{"x":473731,"y":58509}},{"attributes":{"OBJECTID":277,"Date":1558224000000,"Lat":30.33985,"Lon":-89.16144,"Genus":"Tursiops","Species":"truncatus","Sex":"Male","Status":"Moderate Decomposition","County":"Harrison","State":"MS","F_updated":1588749604701},"geometry":{"x":495558,"y":51419}},{"attributes":{"OBJECTID":278,"Date":1558310400000,"Lat":29.23519,"Lon":-89.98576,"Genus":"Tursiops","Species":"truncatus","Sex":"Unknown","Status":"Moderate Decomposition","County":"Jefferson","State":"LA","F_updated":1588749604701},"geometry":{"x":408853,"y":185304}},{"attributes":{"OBJECTID":279,"Date":1558310400000,"Lat":29.75492,"Lon":-93.61913,"Genus":"Tursiops","Species":"truncatus","Sex":"Unknown","Status":"Advanced Decomposition","County":"Cameron","State":"LA","F_updated":1588749604701},"geometry":{"x":26682,"y":122496}},{"attributes":{"OBJECTID":280,"Date":1558310400000,"Lat":30.31208,"Lon":-89.25124,"Genus":"Tursiops","Species":"truncatus","Sex":"Female","Status":"Moderate Decomposition","County":"Harrison","State":"MS","F_updated":1588749604701},"geometry":{"x":486112,"y":54803}},{"attributes":{"OBJECTID":281,"Date":1558310400000,"Lat":30.335074,"Lon":-89.175616,"Genus":"Tursiops","Species":"truncatus","Sex":"Unknown","Status":"Advanced Decomposition","County":"Harrison","State":"MS","F_updated":1588749604701},"geometry":{"x":494067,"y":52001}},{"attributes":{"OBJECTID":282,"Date":1558396800000,"Lat":30.36496,"Lon":-89.08507,"Genus":"Tursiops","Species":"truncatus","Sex":"Male","Status":"Moderate Decomposition","County":"Harrison","State":"MS","F_updated":1588749604701},"geometry":{"x":503590,"y":48358}},{"attributes":{"OBJECTID":283,"Date":1558483200000,"Lat":30.297586,"Lon":-89.337,"Genus":"Tursiops","Species":"truncatus","Sex":"Unknown","Status":"Advanced Decomposition","County":"Hancock","State":"MS","F_updated":1588749604701},"geometry":{"x":477092,"y":56569}},{"attributes":{"OBJECTID":284,"Date":1558569600000,"Lat":30.22551,"Lon":-88.90303,"Genus":"Tursiops","Species":"truncatus","Sex":"Unknown","Status":"Moderate Decomposition","County":"Harrison","State":"MS","F_updated":1588749604701},"geometry":{"x":522738,"y":65346}},{"attributes":{"OBJECTID":285,"Date":1558569600000,"Lat":30.209266,"Lon":-88.95661,"Genus":"Tursiops","Species":"truncatus","Sex":"Unknown","Status":"Mummified/Skeletal","County":"Harrison","State":"MS","F_updated":1588749604701},"geometry":{"x":517102,"y":67323}},{"attributes":{"OBJECTID":286,"Date":1558656000000,"Lat":30.760838,"Lon":-87.98141,"Genus":"Tursiops","Species":"truncatus","Sex":"Unknown","Status":"Alive","County":"Baldwin","State":"AL","F_updated":1588749604701},"geometry":{"x":619677,"y":0}},{"attributes":{"OBJECTID":287,"Date":1558656000000,"Lat":30.20888,"Lon":-89.08693,"Genus":"Tursiops","Species":"truncatus","Sex":"Unknown","Status":"Moderate Decomposition","County":"Harrison","State":"MS","F_updated":1588749604701},"geometry":{"x":503395,"y":67370}},{"attributes":{"OBJECTID":288,"Date":1558742400000,"Lat":29.30278055,"Lon":-89.9575722,"Genus":"Tursiops","Species":"truncatus","Sex":"Male","Status":"Advanced Decomposition","County":"Jefferson","State":"LA","F_updated":1588749604701},"geometry":{"x":411818,"y":177154}},{"attributes":{"OBJECTID":289,"Date":1558742400000,"Lat":30.39098,"Lon":-88.96728,"Genus":"Tursiops","Species":"truncatus","Sex":"Unknown","Status":"Advanced Decomposition","County":"Harrison","State":"MS","F_updated":1588749604701},"geometry":{"x":515980,"y":45186}},{"attributes":{"OBJECTID":290,"Date":1558742400000,"Lat":30.31909,"Lon":-89.22983,"Genus":"Tursiops","Species":"truncatus","Sex":"Male","Status":"Moderate Decomposition","County":"Harrison","State":"MS","F_updated":1588749604701},"geometry":{"x":488364,"y":53949}},{"attributes":{"OBJECTID":291,"Date":1558828800000,"Lat":29.6603166,"Lon":-89.564866,"Genus":"Tursiops","Species":"truncatus","Sex":"Unknown","Status":"Moderate Decomposition","County":"St. Bernard","State":"LA","F_updated":1588749604701},"geometry":{"x":453124,"y":133953}},{"attributes":{"OBJECTID":292,"Date":1558828800000,"Lat":30.233422,"Lon":-89.148797,"Genus":"Tursiops","Species":"truncatus","Sex":"Unknown","Status":"Moderate Decomposition","County":"Harrison","State":"MS","F_updated":1588749604701},"geometry":{"x":496887,"y":64383}},{"attributes":{"OBJECTID":293,"Date":1558828800000,"Lat":30.354667,"Lon":-88.91815,"Genus":"Tursiops","Species":"truncatus","Sex":"Unknown","Status":"Moderate Decomposition","County":"Harrison","State":"MS","F_updated":1588749604701},"geometry":{"x":521148,"y":49613}},{"attributes":{"OBJECTID":294,"Date":1558828800000,"Lat":30.318171,"Lon":-89.232177,"Genus":"Tursiops","Species":"truncatus","Sex":"Unknown","Status":"Moderate Decomposition","County":"Harrison","State":"MS","F_updated":1588749604701},"geometry":{"x":488117,"y":54061}},{"attributes":{"OBJECTID":295,"Date":1558915200000,"Lat":30.341983,"Lon":-88.801267,"Genus":"Tursiops","Species":"truncatus","Sex":"Unknown","Status":"Moderate Decomposition","County":"Harrison","State":"MS","F_updated":1588749604701},"geometry":{"x":533442,"y":51159}},{"attributes":{"OBJECTID":296,"Date":1558915200000,"Lat":30.324009,"Lon":-89.215909,"Genus":"Tursiops","Species":"truncatus","Sex":"Female","Status":"Fresh Dead","County":"Harrison","State":"MS","F_updated":1588749604701},"geometry":{"x":489828,"y":53349}},{"attributes":{"OBJECTID":297,"Date":1559001600000,"Lat":30.391042,"Lon":-88.961296,"Genus":"Tursiops","Species":"truncatus","Sex":"Female","Status":"Moderate Decomposition","County":"Harrison","State":"MS","F_updated":1588749604701},"geometry":{"x":516609,"y":45178}},{"attributes":{"OBJECTID":298,"Date":1559001600000,"Lat":30.39192,"Lon":-88.946041,"Genus":"Tursiops","Species":"truncatus","Sex":"Female","Status":"Moderate Decomposition","County":"Harrison","State":"MS","F_updated":1588749604701},"geometry":{"x":518214,"y":45071}},{"attributes":{"OBJECTID":299,"Date":1559001600000,"Lat":30.40338,"Lon":-88.82587,"Genus":"Tursiops","Species":"truncatus","Sex":"Female","Status":"Moderate Decomposition","County":"Jackson","State":"MS","F_updated":1588749604701},"geometry":{"x":530854,"y":43674}},{"attributes":{"OBJECTID":300,"Date":1559001600000,"Lat":30.39343,"Lon":-88.89512,"Genus":"Tursiops","Species":"truncatus","Sex":"Male","Status":"Moderate Decomposition","County":"Harrison","State":"MS","F_updated":1588749604701},"geometry":{"x":523570,"y":44887}},{"attributes":{"OBJECTID":301,"Date":1559001600000,"Lat":30.39326,"Lon":-88.89397,"Genus":"Tursiops","Species":"truncatus","Sex":"Female","Status":"Moderate Decomposition","County":"Harrison","State":"MS","F_updated":1588749604701},"geometry":{"x":523691,"y":44908}},{"attributes":{"OBJECTID":302,"Date":1559001600000,"Lat":30.353556,"Lon":-89.071667,"Genus":"Tursiops","Species":"truncatus","Sex":"Unknown","Status":"Moderate Decomposition","County":"Harrison","State":"MS","F_updated":1588749604701},"geometry":{"x":505000,"y":49748}},{"attributes":{"OBJECTID":303,"Date":1559001600000,"Lat":30.287167,"Lon":-89.027,"Genus":"Tursiops","Species":"truncatus","Sex":"Unknown","Status":"Moderate Decomposition","County":"Harrison","State":"MS","F_updated":1588749604701},"geometry":{"x":509698,"y":57838}},{"attributes":{"OBJECTID":304,"Date":1559088000000,"Lat":30.22518,"Lon":-89.07366,"Genus":"Tursiops","Species":"truncatus","Sex":"Unknown","Status":"Advanced Decomposition","County":"Harrison","State":"MS","F_updated":1588749604701},"geometry":{"x":504791,"y":65386}},{"attributes":{"OBJECTID":305,"Date":1559088000000,"Lat":30.32752,"Lon":-89.20377,"Genus":"Tursiops","Species":"truncatus","Sex":"Female","Status":"Fresh Dead","County":"Harrison","State":"MS","F_updated":1588749604701},"geometry":{"x":491105,"y":52922}},{"attributes":{"OBJECTID":306,"Date":1559088000000,"Lat":30.288433,"Lon":-89.0371,"Genus":"Tursiops","Species":"truncatus","Sex":"Male","Status":"Moderate Decomposition","County":"Harrison","State":"MS","F_updated":1588749604701},"geometry":{"x":508636,"y":57684}},{"attributes":{"OBJECTID":307,"Date":1559088000000,"Lat":30.37606,"Lon":-89.04391,"Genus":"Tursiops","Species":"truncatus","Sex":"Male","Status":"Advanced Decomposition","County":"Harrison","State":"MS","F_updated":1588749604701},"geometry":{"x":507920,"y":47005}},{"attributes":{"OBJECTID":308,"Date":1559088000000,"Lat":30.39406,"Lon":-88.90649,"Genus":"Tursiops","Species":"truncatus","Sex":"Female","Status":"Moderate Decomposition","County":"Harrison","State":"MS","F_updated":1588749604701},"geometry":{"x":522374,"y":44810}},{"attributes":{"OBJECTID":309,"Date":1559174400000,"Lat":30.325556,"Lon":-88.134722,"Genus":"Tursiops","Species":"truncatus","Sex":"Male","Status":"Moderate Decomposition","County":"Mobile","State":"AL","F_updated":1588749604701},"geometry":{"x":603551,"y":53161}},{"attributes":{"OBJECTID":310,"Date":1559174400000,"Lat":30.229181,"Lon":-87.964361,"Genus":"Tursiops","Species":"truncatus","Sex":"Female","Status":"Fresh Dead","County":"Baldwin","State":"AL","F_updated":1588749604701},"geometry":{"x":621471,"y":64899}},{"attributes":{"OBJECTID":311,"Date":1559174400000,"Lat":30.35058,"Lon":-89.13371,"Genus":"Tursiops","Species":"truncatus","Sex":"Male","Status":"Moderate Decomposition","County":"Harrison","State":"MS","F_updated":1588749604701},"geometry":{"x":498474,"y":50111}},{"attributes":{"OBJECTID":312,"Date":1559174400000,"Lat":30.21361,"Lon":-88.94251,"Genus":"Tursiops","Species":"truncatus","Sex":"Male","Status":"Moderate Decomposition","County":"Harrison","State":"MS","F_updated":1588749604701},"geometry":{"x":518585,"y":66795}},{"attributes":{"OBJECTID":313,"Date":1559174400000,"Lat":30.367222,"Lon":-88.773549,"Genus":"Tursiops","Species":"truncatus","Sex":"Female","Status":"Moderate Decomposition","County":"Jackson","State":"MS","F_updated":1588749604701},"geometry":{"x":536357,"y":48083}},{"attributes":{"OBJECTID":314,"Date":1559174400000,"Lat":30.246446,"Lon":-89.423984,"Genus":"Tursiops","Species":"truncatus","Sex":"Female","Status":"Moderate Decomposition","County":"Hancock","State":"MS","F_updated":1588749604701},"geometry":{"x":467942,"y":62797}},{"attributes":{"OBJECTID":315,"Date":1559260800000,"Lat":30.3741,"Lon":-88.8498,"Genus":"Tursiops","Species":"truncatus","Sex":"Female","Status":"Moderate Decomposition","County":"Harrison","State":"MS","F_updated":1588749604701},"geometry":{"x":528337,"y":47244}},{"attributes":{"OBJECTID":316,"Date":1559260800000,"Lat":30.28615,"Lon":-89.088833,"Genus":"Tursiops","Species":"truncatus","Sex":"Unknown","Status":"Moderate Decomposition","County":"Harrison","State":"MS","F_updated":1588749604701},"geometry":{"x":503195,"y":57962}},{"attributes":{"OBJECTID":317,"Date":1559260800000,"Lat":30.37053,"Lon":-89.0747,"Genus":"Tursiops","Species":"truncatus","Sex":"Male","Status":"Alive","County":"Harrison","State":"MS","F_updated":1588749604701},"geometry":{"x":504681,"y":47679}},{"attributes":{"OBJECTID":318,"Date":1572739200000,"Lat":30.251175,"Lon":-88.079107,"Genus":"Tursiops","Species":"truncatus","Sex":"Female","Status":"Fresh Dead","County":"Mobile","State":"AL","F_updated":1588749604701},"geometry":{"x":609401,"y":62221}},{"attributes":{"OBJECTID":319,"Date":1572998400000,"Lat":30.346255,"Lon":-88.123715,"Genus":"Tursiops","Species":"truncatus","Sex":"Unknown","Status":"Moderate Decomposition","County":"Mobile","State":"AL","F_updated":1588749604701},"geometry":{"x":604709,"y":50638}},{"attributes":{"OBJECTID":320,"Date":1573171200000,"Lat":29.795427,"Lon":-93.63093,"Genus":"Tursiops","Species":"truncatus","Sex":"Unknown","Status":"Alive","County":"Cameron","State":"LA","F_updated":1588749604701},"geometry":{"x":25441,"y":117588}},{"attributes":{"OBJECTID":321,"Date":1574035200000,"Lat":29.7494,"Lon":-93.6597,"Genus":"Tursiops","Species":"truncatus","Sex":"Male","Status":"Fresh Dead","County":"Cameron","State":"LA","F_updated":1588749604701},"geometry":{"x":22415,"y":123165}},{"attributes":{"OBJECTID":322,"Date":1574467200000,"Lat":29.24353,"Lon":-89.970675,"Genus":"Tursiops","Species":"truncatus","Sex":"Male","Status":"Fresh Dead","County":"Jefferson","State":"LA","F_updated":1588749604701},"geometry":{"x":410439,"y":184298}},{"attributes":{"OBJECTID":323,"Date":1574553600000,"Lat":30.608477,"Lon":-87.912288,"Genus":"Tursiops","Species":"truncatus","Sex":"Male","Status":"Moderate Decomposition","County":"Baldwin","State":"AL","F_updated":1588749604701},"geometry":{"x":626948,"y":18635}},{"attributes":{"OBJECTID":324,"Date":1574726400000,"Lat":30.223862,"Lon":-88.91261,"Genus":"Tursiops","Species":"truncatus","Sex":"Female","Status":"Moderate Decomposition","County":"Harrison","State":"MS","F_updated":1588749604701},"geometry":{"x":521730,"y":65547}},{"attributes":{"OBJECTID":325,"Date":1575072000000,"Lat":29.2497,"Lon":-89.56,"Genus":"Tursiops","Species":"truncatus","Sex":"Unknown","Status":"Moderate Decomposition","County":"Plaquemines","State":"LA","F_updated":1588749604701},"geometry":{"x":453636,"y":183555}},{"attributes":{"OBJECTID":326,"Date":1570147200000,"Lat":30.545278,"Lon":-87.902738,"Genus":"Tursiops","Species":"truncatus","Sex":"Male","Status":"Moderate Decomposition","County":"Baldwin","State":"AL","F_updated":1588749604701},"geometry":{"x":627952,"y":26356}},{"attributes":{"OBJECTID":327,"Date":1570233600000,"Lat":30.277724,"Lon":-87.551094,"Genus":"Tursiops","Species":"truncatus","Sex":"Female","Status":"Moderate Decomposition","County":"Baldwin","State":"AL","F_updated":1588749604701},"geometry":{"x":664940,"y":58988}},{"attributes":{"OBJECTID":328,"Date":1570320000000,"Lat":30.181466,"Lon":-89.746771,"Genus":"Tursiops","Species":"truncatus","Sex":"Male","Status":"Moderate Decomposition","County":"St. Tammany","State":"LA","F_updated":1588749604701},"geometry":{"x":433990,"y":70707}},{"attributes":{"OBJECTID":329,"Date":1570406400000,"Lat":30.305523,"Lon":-88.598854,"Genus":"Tursiops","Species":"truncatus","Sex":"Male","Status":"Moderate Decomposition","County":"Jackson","State":"MS","F_updated":1588749604701},"geometry":{"x":554732,"y":55602}},{"attributes":{"OBJECTID":330,"Date":1572048000000,"Lat":30.339308,"Lon":-89.16467,"Genus":"Tursiops","Species":"truncatus","Sex":"Male","Status":"Moderate Decomposition","County":"Harrison","State":"MS","F_updated":1588749604701},"geometry":{"x":495218,"y":51485}},{"attributes":{"OBJECTID":331,"Date":1572134400000,"Lat":30.334107,"Lon":-88.262761,"Genus":"Tursiops","Species":"truncatus","Sex":"Female","Status":"Moderate Decomposition","County":"Mobile","State":"AL","F_updated":1588749604701},"geometry":{"x":590084,"y":52119}},{"attributes":{"OBJECTID":332,"Date":1567296000000,"Lat":29.27585,"Lon":-90.134017,"Genus":"Tursiops","Species":"truncatus","Sex":"Male","Status":"Moderate Decomposition","County":"Jefferson","State":"LA","F_updated":1588749604701},"geometry":{"x":393259,"y":180402}},{"attributes":{"OBJECTID":333,"Date":1568332800000,"Lat":30.356885,"Lon":-88.839483,"Genus":"Tursiops","Species":"truncatus","Sex":"Unknown","Status":"Moderate Decomposition","County":"Harrison","State":"MS","F_updated":1588749604701},"geometry":{"x":529422,"y":49343}},{"attributes":{"OBJECTID":334,"Date":1568419200000,"Lat":30.3849,"Lon":-87.42795,"Genus":"Tursiops","Species":"truncatus","Sex":"Male","Status":"Moderate Decomposition","County":"Escambia","State":"FL","F_updated":1588749604701},"geometry":{"x":677892,"y":45927}},{"attributes":{"OBJECTID":335,"Date":1569110400000,"Lat":30.36146,"Lon":-89.09291,"Genus":"Tursiops","Species":"truncatus","Sex":"Male","Status":"Moderate Decomposition","County":"Harrison","State":"MS","F_updated":1588749604701},"geometry":{"x":502766,"y":48785}},{"attributes":{"OBJECTID":336,"Date":1569628800000,"Lat":30.353064,"Lon":-88.638551,"Genus":"Tursiops","Species":"truncatus","Sex":"Unknown","Status":"Moderate Decomposition","County":"Jackson","State":"MS","F_updated":1588749604701},"geometry":{"x":550557,"y":49808}},{"attributes":{"OBJECTID":337,"Date":1569715200000,"Lat":30.408859,"Lon":-88.838385,"Genus":"Tursiops","Species":"truncatus","Sex":"Unknown","Status":"Moderate Decomposition","County":"Jackson","State":"MS","F_updated":1588749604701},"geometry":{"x":529538,"y":43006}}]}
